id,nombre,estado_id,nom_ent,municipio_id,nom_mun,localidad_id,nom_loc,universidad_calle_numero,universidad_colonia,universidad_cp,gmaps_longitud,gmaps_latitud,,
2640,Centro de Investigación e Innovación en Tecnologías de la Información y Comunicación (INFOTEC) Aguascalientes,1,Aguascalientes,1,Aguascalientes,1,Aguascalientes,Circuito Tecnopolo Sur 112,Fracc. Tecnopolo Pocitos,20313,-102.29605,21.87982,,
1282,"Instituto Guadalupe Victoria, A.C.",1,Aguascalientes,1,Aguascalientes,1,Aguascalientes,Estrella Polar 102,Col. Bona Gens,20255,-102.26604,21.87616,,
1279,Universidad CLEA,1,Aguascalientes,1,Aguascalientes,1,Aguascalientes,"República del Salvador 1619, piso 1",Fracc.  Valle Dorado,20235,-102.30507,21.86289,,
2647,CentroGeo Aguascalientes,1,Aguascalientes,1,Aguascalientes,1,Aguascalientes,Circuito Tecnopolo Norte 117,Fracc. Tecnopolo Pocitos,20313,-102.29605,21.87982,,
1265,Universidad Villasunción,1,Aguascalientes,1,Aguascalientes,1,Aguascalientes,Av. de las Américas 601 esq. Brasilia,Fracc. Las Fuentes,20230,-102.3021,21.8709,,
1261,"Universidad del Valle de Atemajac,  Plantel Aguascalientes",1,Aguascalientes,1,Aguascalientes,1,Aguascalientes,Av. Siglo XXI núm. 7501,Fracc. Solidaridad III,20263,-102.25199,21.85691,,
2652,Colegio Latinoamericano de Educación Avanzada,1,Aguascalientes,1,Aguascalientes,1,Aguascalientes,"República del Salvador 1619, 1er. piso",Col. Valle Dorado,20235,-102.29605,21.87982,,
104,Universidad Pedagógica Nacional (UPN) U-011 Aguascalientes,1,Aguascalientes,1,Aguascalientes,1,Aguascalientes,J. Jesús Consuelo 226,Col. Gremial Ferrocarrilera,20030,-102.28432,21.89113,,
1280,Escuela Normal de Aguascalientes,1,Aguascalientes,1,Aguascalientes,1,Aguascalientes,Av. Paseo de la Cruz 904 ,Fracc. IV Centenario,20260,-102.28063,21.87265,,
1284,Escuela Normal Superior Federal de Aguascalientes Profr. José Santos Valdés,1,Aguascalientes,1,Aguascalientes,1,Aguascalientes,Blvd. Nazario Ortiz Garza s/n  ,Col. Santa Anita,20170,-102.2736,21.89806,,
208,"Universidad Cuauhtémoc,  Plantel Aguascalientes",1,Aguascalientes,1,Aguascalientes,1,Aguascalientes,Adolfo López Mateos 102,Col. Trojes de Alonso,20908,-102.30019,21.94139,,
2654,"Instituto de Estudios Superiores ISIMA, Plantel Aguascalientes ",1,Aguascalientes,1,Aguascalientes,1,Aguascalientes,Lic. Adolfo López Mateos Ote 327,Barrio del Encino,20240,-102.29605,21.87982,,
1255,Universidad Tecnológica Metropolitana,1,Aguascalientes,1,Aguascalientes,1,Aguascalientes,Calle La Luna 105 ,Barrio de la Salud,20240,-102.28492,21.87257,,
1606,Universidad de las Artes del Instituto Cultural de Aguascalientes (ICA),1,Aguascalientes,1,Aguascalientes,1,Aguascalientes,Av. Gómez Morín s/n Tres Centurias,Col. Ferronales ,20180,-102.28072,21.88916,,
1285,Escuela Superior de Prótesis Dental Esprode,1,Aguascalientes,1,Aguascalientes,1,Aguascalientes,Av. Aguascalientes 1406 Pte.,Colinas del Río,20010,-102.31727,21.89756,,
2598,Universidad Nissan,1,Aguascalientes,1,Aguascalientes,1,Aguascalientes,Km 75 Carretera Federal Lagos de Moreno,San Gerardo,,0,0,,
2603,"Universidad Cuauhtémoc, Sede Sur Aguascalientes",1,Aguascalientes,1,Aguascalientes,1,Aguascalientes,Av. José Ma. Chávez 1173,Col. Obraje,20230,0,0,,
2599,Instituto de Posgrados y Especialidades,1,Aguascalientes,1,Aguascalientes,1,Aguascalientes,"Av. Aguascalientes Norte 1698, piso 1",C.C. Agropecuario,20135,-102.29689,21.91541,,
2656,Instituto Escadia,1,Aguascalientes,1,Aguascalientes,1,Aguascalientes,"Av. Aguascalientes Norte 1698, 1er. piso",Col. Agropecuario,20135,-102.29605,21.87982,,
684,Universidad Tecnológica de Aguascalientes,1,Aguascalientes,1,Aguascalientes,1,Aguascalientes,Blvd. Juan Pablo II núm. 1302,Fracc. Ex-Hacienda La Cantera,20200,-102.35412,21.83979,,
667,Instituto Tecnológico de Aguascalientes,1,Aguascalientes,1,Aguascalientes,1,Aguascalientes,Av. Adolfo López Mateos 1801 Ote.,Fracc. Bona Gens,20256,-102.26256,21.87844,,
2657,Instituto Estatal de Seguridad Pública de Aguascalientes,1,Aguascalientes,1,Aguascalientes,1,Aguascalientes,Av. Los Conos 105,Fracc. Ojocaliente Inegi,20196,-102.29605,21.87982,,
2600,"Instituto Tecnológico de la Construcción, Campus Aguascalientes",1,Aguascalientes,1,Aguascalientes,1,Aguascalientes,Av. Tecnológico 110,Col. IV Centenario,20190,0,0,,
2641,Centro de Estudios Superiores del Estado de Aguascalientes,1,Aguascalientes,1,Aguascalientes,1,Aguascalientes,"Av. de las Américas 502, int. 202",Fracc. Las Américas,20230,-102.29605,21.87982,,
1260,"Universidad del Desarrollo Profesional, Plantel Aguascalientes",1,Aguascalientes,1,Aguascalientes,1,Aguascalientes,Blvd. José María Chávez 1323 ,Fracc. Agricultura,20234,-102.29407,21.86337,,
1263,Universidad La Concordia Campus Paraíso,1,Aguascalientes,1,Aguascalientes,1,Aguascalientes,Av. Paseo del Paraíso s/n,Fracc. Desarrollo Ecológico Paraíso,20313,-102.34769,21.88543,,
2670,"Universidad Pontificia de México, Campus Aguascalientes",1,Aguascalientes,1,Aguascalientes,1,Aguascalientes,Cerro del Laurel 105 esq. Monte Éverest,Fracc. Los Bosques,20100,-102.29605,21.87982,,
166,"Universidad Panamericana, Campus Aguascalientes",1,Aguascalientes,1,Aguascalientes,1,Aguascalientes,Blvd. Josemaría Escribá de Balaguer 101,Fracc. Rústicos Calpulli,20290,-102.28384,21.82412,,
1264,Universidad Politécnica de Aguascalientes,1,Aguascalientes,1,Aguascalientes,1,Aguascalientes,Paseo San Gerardo 207,Fracc. San Gerardo,20342,-102.29534,21.80682,,
2666,"Universidad Latinoamericana, Campus Ejecutivo Aguascalientes",1,Aguascalientes,1,Aguascalientes,1,Aguascalientes,"Av. Universidad 1001, local 1 PB",Fracc. Bosques del Prado Norte,20060,-102.29605,21.87982,,
1262,Universidad Interamericana para el Desarrollo<br>Sede Aguascalientes,1,Aguascalientes,1,Aguascalientes,1,Aguascalientes,Av. Convención de 1914 Pte. 1204,Col. Panorama,20040,-102.31293,21.88661,,
436,"Tecnológico de Monterrey, Campus Aguascalientes",1,Aguascalientes,1,Aguascalientes,1,Aguascalientes,Av. Eugenio Garza Sada 1500 ,Col. Los Pocitos,20328,-102.34082,21.93353,,
1258,Universidad de Estudios Avanzados,1,Aguascalientes,1,Aguascalientes,1,Aguascalientes,Av. Héroes de Nacozari Sur 402 ,Col. San Luis,20250,-102.28118,21.87798,,
1370,"Universidad Autónoma de Durango, Campus Aguascalientes",1,Aguascalientes,1,Aguascalientes,1,Aguascalientes,"Av. Independencia 1861 int. 16, 17 y 18, Plaza GBS","Fracc. Jardines de la Concepción, 2da. sección",20120,-102.30677,21.91668,,
739,Universidad Autónoma de Aguascalientes (UAA),1,Aguascalientes,1,Aguascalientes,1,Aguascalientes,"Av. Universidad 940, edif. 1",Ciudad Universitaria,20131,-102.31315,21.91377,,
2659,Instituto Superior de Sistema Abierto de Enseñanza,1,Aguascalientes,1,Aguascalientes,1,Aguascalientes,Av. Aguascalientes Pte. 2017,,,-102.29605,21.87982,,
119,"Universidad del Valle de México, Campus Aguascalientes",1,Aguascalientes,1,Aguascalientes,1,Aguascalientes,Blvd. Juan Pablo II 1144 esq. Héroes de Chapultepec,Col. Loma Bonita,20207,-102.34221,21.85836,,
1277,Centro de Actualización del Magisterio,1,Aguascalientes,5,Jesús María,1,Jesús María,Av. Ayuntamiento 406,Col. Cedros,20270,-102.34889,21.96358,,
2597,Instituto Tecnológico de Pabellón de Artega,1,Aguascalientes,6,Pabellón de Arteaga,1,Pabellón de Arteaga,Carr. Estación de Rincón Km 1l. ,,20670,0,0,,
2671,"Universidad Villasunción, Campus Encarnación de Díaz",1,Aguascalientes,7,Rincón de Romos,1,Rincón de Romos,Hermenegildo Galeana 24,Col. Independencia,20410,-102.32307,22.22923,,
284,"Universidad Tecnológica del Norte de Aguascalientes, Campus Rincón de Romos",1,Aguascalientes,7,Rincón de Romos,1,Rincón de Romos,Av. Universidad 1001,Col. Estación Rincón,20400,-102.28136,22.22484,,
1281,Escuela Normal de Rincon de Romos Dr. Rafael Francisco Aguilar Lomelí,1,Aguascalientes,7,Rincón de Romos,1,Rincón de Romos,Aldama 205,Col. Santa Elena,20400,-102.32438,22.23248,,
2658,Instituto Tecnológico El Llano de Aguascalientes,1,Aguascalientes,10,El Llano,1,Palo Alto,"Carr. Aguascalientes - San Luis Potosí, km 18",,20330,-101.96531,21.91887,,
1227,"Tecnológico de Baja California, Campus Ensenada",2,Baja California,1,Ensenada,1,Ensenada,Av. Miguel 89,Col. Ampliación Moderna,22879,-116.6393,31.86505,,
2830,"Universidad Autónoma de Durango, Campus Ensenada",2,Baja California,1,Ensenada,1,Ensenada,Lago Victoria esq. Lago Chapala 568,Fracc. Valle Dorado,22890,-116.59513,31.80894,,
2032,Fundación Telecomunicaciones para Educación y Desarrollo (Teleddes),2,Baja California,1,Ensenada,1,Ensenada,Av. Punta Banda 141,Fracc. Chapultepec,22870,0,0,,
1228,"Centro de Enseñanza Técnica y Superior, Campus Ensenada",2,Baja California,1,Ensenada,1,Ensenada,"Camino Microondas Trinidad Km. 1, s/n Las Palmas 3ra. sección",Col. Moderna Oeste,22860,-116.66461,31.86783,,
1225,"Universidad Autónoma de Baja California, Campus Ensenada ",2,Baja California,1,Ensenada,1,Ensenada,Carr. Transpeninsular Ensenada - Tijuana 3917,Col. Playitas,22860,0,0,,
1230,"Universidad de Tijuana, Campus Ensenada",2,Baja California,1,Ensenada,1,Ensenada,Calle Miguel Alemán 889,Col. Ampliación Moderna,22860,-116.6435,31.86735,,
2423,Escuela Normal Estatal  Profr. Jesús Prado Luna,2,Baja California,1,Ensenada,1,Ensenada,Av. Eucalipto y de las Rosas s/n,Fracc. Valle Verde,22839,-116.60573,31.8848,,
2755,Instituto Tecnológico de Ensenada,2,Baja California,1,Ensenada,1,Ensenada,Blvd. Tecnológico 150,Ex Ejido Chapultepec,22780,-116.59513,31.80894,,
1298,"Universidad Interamericana para el Desarrollo, Sede Ensenada",2,Baja California,1,Ensenada,1,Ensenada,Blvd. Las Dunas y Caracoles 115,Fracc. Playa Ensenada,22880,-116.60602,31.85957,,
1293,"Universidad del Desarrollo Profesional, Plantel Ensenada",2,Baja California,1,Ensenada,1,Ensenada,Av. Adolfo López Mateos 2008 ,Fracc. Granados,22840,-116.60944,31.8561,,
2031,Centro de Investigación Científica y de Educación Superior de Ensenada (CICESE),2,Baja California,1,Ensenada,1,Ensenada,Carr. Ensenada-Tijuana 3918,Zona Playitas,22860,-116.66443,31.86817,,
2687,"Centro de Estudios Superiores de la Frontera, Campus Ensenada",2,Baja California,1,Ensenada,1,Ensenada,Av. Miramar esq. Calle 18 núm. 700,Zona Centro,22800,-116.59513,31.80894,,
2880,"Universidad Vizcaya de las Américas, Campus Ensenada",2,Baja California,1,Ensenada,1,Ensenada,Av. Moctezuma 1300,Centro,22800,-116.59513,31.80894,,
1229,"Universidad Xochicalco, Campus Ensenada",2,Baja California,1,Ensenada,1,Ensenada,San Francisco 1139 ,Fracc. Misión,22830,-116.61077,31.86989,,
1249,Universidad de Tijuana (CUT) Campus San Quintín,2,Baja California,1,Ensenada,857,San Quintín,Calle Tercera 139,Fracc. San Quintín,22940,0,0,,
2425,Escuela Normal Experimental Profr. Gregorio Torres Quintero,2,Baja California,1,Ensenada,857,San Quintín,Av. Daniel Quintero 551 ,Ejido Raúl Sánchez Díaz,22930,-115.92288,30.50991,,
2754,Instituto Superior de Filosofía,2,Baja California,2,Mexicali,1,Mexicali,Av. Madero 2000,Centro,21100,-115.47558,32.64118,,
2757,"Instituto Tecnológico de la Construcción, Campus Baja California",2,Baja California,2,Mexicali,1,Mexicali,Blvd. Las palmas 1293,Fracc. Los Pinos,21230,-115.47558,32.64118,,
2501,"Universidad del Desarrollo Profesional, Campus Mexicali",2,Baja California,2,Mexicali,1,Mexicali,Blvd. Lázaro Cárdenas 1999 esq. Venustiano Carranza,Col. Plutarco Elías Calles,21399,0,0,,
2710,"Escuela Normal del Valle de Mexicali, Ejido Campeche",2,Baja California,2,Mexicali,1,Mexicali,Prol. Morelos s/n,Col. Poblado Lic. Benito Juárez,21900,-115.47558,32.64118,,
1246,"Universidad de Tijuana,  Campus Mexicali",2,Baja California,2,Mexicali,1,Mexicali,Av. Reforma 1381,Fracc. Vista Hermosa,21100,-115.46935,32.6651,,
2684,"Centro de Estudios de Posgrado, Campus Mexicali",2,Baja California,2,Mexicali,1,Mexicali,"Blvd. Benito Juárez  1298, local 25",Fracc. Jardines del Valle,21270,-115.47558,32.64118,,
2682,Benemérita Escuela Normal Urbana Nocturna del Estado,2,Baja California,2,Mexicali,1,Mexicali,Av. Juan Escutia esq. Río San Lorenzo,Col. Prohogar,21240,-115.47558,32.64118,,
1267,Benemérita Escuela Normal Urbana Federal Fronteriza de Mexicali,2,Baja California,2,Mexicali,1,Mexicali,Churubusco s/n,Ex Ejido Coahuila,,-115.44115,32.62993,,
1269,"Centro de Enseñanza Técnica y Superior, Campus Mexicali",2,Baja California,2,Mexicali,1,Mexicali,Calz. Cetys s/n,Col. Rivera,21259,-115.41053,32.65454,,
1289,Universidad Pedagógica Nacional (UPN) U-021 Mexicali,2,Baja California,2,Mexicali,1,Mexicali,Av. José Antonio Torres y Río Mocorito s/n ,Col. Magisterial Independencia,21290,-115.43572,32.63067,,
2711,Escuela Normal Experimental Mtro. Rafael Ramírez,2,Baja California,2,Mexicali,1,Mexicali,Blvd. Delta s/n,Ejido Nuevo León,21705,-115.47558,32.64118,,
2730,Instituto de Administración Pública del Estado de Baja California,2,Baja California,2,Mexicali,1,Mexicali,Av. de la Patria 868 letra G,Centro Cívico,21100,-115.47558,32.64118,,
1266,Benemérita Escuela Normal  Educadora Rosaura Zapata,2,Baja California,2,Mexicali,1,Mexicali,Av. Fernando Montes de Oca 399 ,Col. Primero de Diciembre,21260,-115.44245,32.6479,,
2753,"Instituto Peninsular de Estudios Superiores, S.C.",2,Baja California,2,Mexicali,1,Mexicali,Blvd. Adolfo López Mateos 115,Col. Zacatecas,21040,-115.47558,32.64118,,
2881,"Universidad Vizcaya de las Américas, Campus Mexicali",2,Baja California,2,Mexicali,1,Mexicali,Blvd. Justo Sierra 165,Col. Cuauhtémoc Nte.,21200,-115.47558,32.64118,,
2426,"Escuela Superior de Comercio Exterior, A.C.,  Plantel Mexicali",2,Baja California,2,Mexicali,1,Mexicali,Blvd. López Mateos 1622 ,Col. Zacatecas,21090,-115.4619,32.63161,,
2879,Universidad Politécnica de Baja California (UPBC),2,Baja California,2,Mexicali,1,Mexicali,Claridad s/n,Col. Plutarco Elías Calles,21376,-115.47558,32.64118,,
2875,"Universidad Nacional de Estudios Avanzados, Campus Cuauhtémoc",2,Baja California,2,Mexicali,1,Mexicali,Calz. Cuauhtémoc 336,Col. Aviación,21230,-115.47558,32.64118,,
1297,Universidad Estatal de Estudios Pedagógicos,2,Baja California,2,Mexicali,1,Mexicali,Av. Fresnillo y Cañitas 310 ,Col. Zacatecas,21070,-115.46542,32.62987,,
2729,Instituto Bancario y Comercial,2,Baja California,2,Mexicali,1,Mexicali,Francisco Javier Mina 1616,,,-115.47558,32.64118,,
1292,Universidad de Educación Abierta y a Distancia,2,Baja California,2,Mexicali,1,Mexicali,Blvd. Lázaro Cárdenas 1651-14,Col. Hidalgo,21389,-115.46549,32.62411,,
2831,"Universidad Autónoma  de Durango, Campus Mexicali",2,Baja California,2,Mexicali,1,Mexicali,Benito Juárez 1798,Col. Reforma,21280,-115.47558,32.64118,,
488,"Universidad Autónoma de Baja California, Campus Mexicali",2,Baja California,2,Mexicali,1,Mexicali,Blvd. Benito Juárez s/n ,Maestros Federales,21280,-115.4444,32.63226,,
2816,Universidad Autónoma de Baja California (UABC),2,Baja California,2,Mexicali,1,Mexicali,Av. Álvaro Obregón s/n,Col. Nueva,21100,-115.47558,32.64118,,
1300,"Universidad del Valle de México, Campus Mexicali",2,Baja California,2,Mexicali,1,Mexicali,Novena Central 294,Col. Plutarco Elías Calles,21396,0,0,,
2810,Instituto Tecnológico de Mexicali,2,Baja California,2,Mexicali,1,Mexicali,Av. Instituto Tecnológico s/n,Col. Plutarco Elías Calles,21376,-115.47558,32.64118,,
1240,"Universidad Nacional de Estudios Avanzados, Campus Oriente",2,Baja California,2,Mexicali,1,Mexicali,Calz. Manuel Gómez Morín 2000,Col. Rancho La Bodega,21379,0.05905,0.00393,,
1272,"Universidad Xochicalco, Campus Mexicali",2,Baja California,2,Mexicali,1,Mexicali,Novena 1199,Col. Plutarco Elías Calles,21376,0,0,,
2424,Centro de Estudios Superiores de la Frontera ,2,Baja California,2,Mexicali,1,Mexicali,Blvd. Delta s/n,Ejido Nuevo León,21705,0,0,,
2751,Instituto de Bellas Artes del Estado de Baja California,2,Baja California,2,Mexicali,1,Mexicali,Av. Obregón esq. Pedro F. Pérez y Ramírez s/n,Centro,21100,-115.47558,32.64118,,
1233,"Universidad Autónoma de Baja California, Campus Tijuana Unidad Tecate",2,Baja California,3,Tecate,1,Tecate,Calz. Universidad 1,Fracc. San Fernando,21430,-116.62681,32.56819,,
1341,"Universidad Autónoma de Baja California, Unidad Valle de las Palmas",2,Baja California,3,Tecate,1,Tecate,Blvd. Universitario 1000,Valle San Pedro,22263,0,0,,
1221,"Universidad Nacional de Estudios Avanzados,  Campus La Mesa",2,Baja California,4,Tijuana,1,Tijuana,Blvd. Federico Benítez 319,Fracc. Los Españoles,22430,-116.95206,32.49603,,
2887,"University of Advanced Technologies (UNIAT), Tijuana",2,Baja California,4,Tijuana,1,Tijuana,Blvd. Díaz Ordaz 12415,Fracc. El Paraíso,22106,-117.01891,32.53246,,
2416,Escuela de Enfermería Tijuana,2,Baja California,4,Tijuana,1,Tijuana,"Paseo Playas 1501, Secc. Jardines",Fracc. Playas de Tijuana,22205,-116.9268,32.47609,,
1194,"Universidad Autónoma de Baja California, Unidad Otay",2,Baja California,4,Tijuana,1,Tijuana,Calz. Universidad 14418,Parque Industrial Internacional Tijuana,22390,-116.96536,32.53162,,
2829,"Universidad Autónoma de Baja California, Campus Tijuana",2,Baja California,4,Tijuana,1,Tijuana,Calz. Universidad 14418,Col. Parque Industrial,22427,-117.01891,32.53246,,
1296,"Universidad del Desarrollo Profesional (UNIDEP), Plantel Tijuana",2,Baja California,4,Tijuana,1,Tijuana,Blvd. Manuel J. Cloutier 19410,Col. del Lago Sur,22217,0,0,,
1222,"Universidad Nacional de Estudios Avanzados, Campus  Florido",2,Baja California,4,Tijuana,1,Tijuana,Blvd. El Refugio 24915,Col. Fideicomiso El Florido,22245,0,0,,
99,"El Colegio de la Frontera Norte, A.C. ",2,Baja California,4,Tijuana,1,Tijuana,Carr. Escénica Tijuana-Ensenada Km 18.5,Col. San Antonio del Mar,22560,-117.11095,32.45554,,
93,Universidad de las Californias  (UDC),2,Baja California,4,Tijuana,1,Tijuana,Blvd. Federico Benítez 460,Fracc. Los Españoles,22430,0,0,,
1295,Universidad del Desarrollo Profesional (UNIDEP) Plantel Tijuana 1,2,Baja California,4,Tijuana,1,Tijuana,Blvd. Gustavo Díaz Ordaz 15260,Col. Bentón,21115,0,0,,
1355,Colegio Mentor Mexicano,2,Baja California,4,Tijuana,1,Tijuana,Brasil 530,Col. Cacho,22150,0,0,,
1697,"Centro de Investigación y Desarrollo de Tecnología Digital, Unidad Tijuana",2,Baja California,4,Tijuana,1,Tijuana,Av. Instituto Politécnico Nacional 1310,Col. Nueva Tijuana,22435,-116.94292,32.53886,,
1190,"Centro de Enseñanza Técnica y Superior, Campus Tijuana",2,Baja California,4,Tijuana,1,Tijuana,Av. Cetys Universidad 4,Fracc. El Lago,22210,-116.92409,32.5072,,
2422,Educación Superior del Pacífico Escuela de Negocios,2,Baja California,4,Tijuana,1,Tijuana,Paseo del Centenario 9211,Zona del Río,22010,0,0,,
2427,"Escuela Superior de Comercio Exterior, A.C.,  Plantel Tijuana",2,Baja California,4,Tijuana,1,Tijuana,Blvd. Aeropuerto y Calle Interamericana 1009,Mesa Otay,22457,0,0,,
1235,Universidad Xochicalco Campus Tijuana,2,Baja California,4,Tijuana,1,Tijuana,Rampa Yumalinda 4850,Fracc. Chapultepec Alamar,22110,-116.95863,32.51305,,
1193,"Tecnológico de Baja California, Campus Tijuana",2,Baja California,4,Tijuana,1,Tijuana,Blvd. el refugio 5 Altos ,Col. El Florido primera sección,22237,-116.96468,32.50553,,
2697,"Escuela de Trabajo Social, Tijuana",2,Baja California,4,Tijuana,1,Tijuana,Calz. Guadalupe 6,Fracc. La Villa,22000,-117.01891,32.53246,,
1345,Instituto Tecnológico de Tijuana ,2,Baja California,4,Tijuana,1,Tijuana,Calz. Tecnológico s/n,Fracc. Tomás Aquino,22414,-116.98761,32.52959,,
1270,Centro de Estudios Superiores de la Frontera ,2,Baja California,4,Tijuana,1,Tijuana,Blvd. O´Higgins 6050,Zona Río 3a. etapa,22110,-116.94667,32.50037,,
1488,"Universidad Humanitas, Campus Tijuana",2,Baja California,4,Tijuana,1,Tijuana,Paseo del Cucapah 16301,Fracc. Lago Sur,22210,0,0,,
1192,Escuela Superior de Artes Visuales,2,Baja California,4,Tijuana,1,Tijuana,"Paseo Pedregal 350, Secc. Terrazas de Mendoza",Fracc. Playas de Tijuana,22226,-117.1173,32.52967,,
115,Universidad Iberoamericana (UIA) Tijuana,2,Baja California,4,Tijuana,1,Tijuana,Av. Centro Universitario 2501,Fracc. Playas de Tijuana,22200,-117.10043,32.51888,,
1223,Centro de Estudios Superiores del Noroeste,2,Baja California,4,Tijuana,1,Tijuana,Blvd.. Cucapah Sur 20100,Fracc. El Lago,20100,-116.92907,32.50016,,
1346,Escuela Normal Fronteriza de Tijuana,2,Baja California,4,Tijuana,1,Tijuana,Valles s/n,Zona Río 3a. Etapa,22226,-116.92848,32.4814,,
1339,Centro de Investigación para el Desarrollo Humano (CIDH),2,Baja California,4,Tijuana,1,Tijuana,Av. Paseo Playas de Tijuana 501,Secc. Jardines,22240,-117.11828,32.52707,,
1191,Universidad CIES,2,Baja California,4,Tijuana,1,Tijuana,Blvd. Federico Benitez 5,Fracc. Los Españoles,22104,0,0,,
2841,"Universidad Autónoma de Durango, Campus Tijuana",2,Baja California,4,Tijuana,1,Tijuana,El Pedregal Oeste,,22104,-117.01891,32.53246,,
1353,"Centro de Educación Continua CEC, Unidad Tijuana ",2,Baja California,4,Tijuana,1,Tijuana,Av. Instituto Politécnico Nacional 1310,Col. Mesa de Otay,22510,-116.94294,32.53886,,
1290,Universidad Pedagógica Nacional (UPN) U-022 Tijuana,2,Baja California,4,Tijuana,1,Tijuana,Paseo de la vida s/n ,"Fracc. Bosque de las Araucarias, Mesa de Otay",22510,-116.95101,32.52666,,
1234,Universidad de Tijuana (CUT) Campus Tijuana,2,Baja California,4,Tijuana,1,Tijuana,Av. J. Lucrecia Torriz 1010,Col. Altamira,22120,-117.05259,32.5327,,
83,Universidad Tecnológica de Tijuana (UTT),2,Baja California,4,Tijuana,1,Tijuana,Carr. Libre Tijuana-Tecate Km. 10,Fracc. El Refugio Quintas Campestre,22253,0,0,,
121,"Universidad Nacional de Estudios Avanzados, Campus Pedregal",2,Baja California,4,Tijuana,1,Tijuana,Blvd. Federico Benitez 14620,Col. El Pedregal,22104,0,0,,
2771,"Instituto Tecnológico de la Construcción, Campus Tijuana",2,Baja California,4,Tijuana,1,Tijuana,"Alfredo Ramos 0611, local 1 y 2",Zona Río,22320,-117.01891,32.53246,,
1347,Escuela de Danza Gloria Campobello,2,Baja California,4,Tijuana,1,Tijuana,Blvd. Fundadores 2589,Col. Juárez,22040,-117.03072,32.51249,,
2874,"Universidad Nacional de Estudios Avanzados, Campus 20 de Noviembre",2,Baja California,4,Tijuana,1,Tijuana,Av. Baños de Agua Caliente 3360,Col. 20 de Noviembre,22100,-117.01891,32.53246,,
2726,Escuela Superior de Educación Física de Tijuana,2,Baja California,4,Tijuana,1,Tijuana,Bahía San Miguelito,Col. El Mirador,22230,-117.01891,32.53246,,
1299,Universidad Interamericana para el Desarrollo (UNID) Sede Tijuana,2,Baja California,4,Tijuana,1,Tijuana,Rampa Aeropuerto 16002,"Col. Parque Industrial Internacional, Mesa de Otay",22424,0,0,,
1337,Culinary Art School ,2,Baja California,4,Tijuana,1,Tijuana,Paseo del Rio 7126,3a. etapa Zona Río,22224,-116.92707,32.48023,,
2752,"Instituto para el Desarrollo y Actualización de Profesionales, S.C., Tijuana",2,Baja California,4,Tijuana,1,Tijuana,"Calle 9, núm. 8110",Centro,22000,-117.01891,32.53246,,
1232,"Universidad Autónoma de Baja California, Unidad Rosarito",2,Baja California,5,Playas de Rosarito,1,Playas de Rosarito,Av. Universidad Mz. 66,Fracc. Lomas del Coronado,22700,0,0,,
1231,Universidad Rosaritense,2,Baja California,5,Playas de Rosarito,1,Playas de Rosarito,Paseo de las Flores 100,"Fracc. Vista Hermosa, Col. Constitución",22710,-117.05029,32.36163,,
2930,Instituto Tecnológico Superior de Mulegé,3,Baja California Sur,2,Mulegé,1,Santa Rosalía,Loma Los Frailes s/n,Centro,23920,-112.26827,27.33687,,
2431,Escuela Normal Superior del Estado de Baja California Sur,3,Baja California Sur,3,La Paz,1,La Paz,Sierra las Vírgenes y Sierra San Javier,"Col. 8 de octubre, 2a. secc.",23080,-110.3158,24.11101,,
1026,Universidad de Tijuana (CUT) Campus La Paz,3,Baja California Sur,3,La Paz,1,La Paz,Forjadores ,Col. El Mezquitito,23080,0,0,,
1302,"Universidad del Desarrollo Profesional , Plantel La Paz",3,Baja California Sur,3,La Paz,1,La Paz,5 de mayo 1235 ,Centro,23000,-110.30296,24.15526,,
1028,Universidad Internacional de La Paz,3,Baja California Sur,3,La Paz,1,La Paz,Carr. al Norte Km 11 Chametla-El Centenario,Ejido Chametla,23201,-110.34307,24.12925,,
2429,Benemérita Escuela Normal Urbana Profr. Domingo Carballo Félix,3,Baja California Sur,3,La Paz,1,La Paz,Av. Gral. Félix Ortega Aguilar,Centro,23000,-110.3107,24.14717,,
2902,Instituto de Administración Pública del Estado de Baja California Sur,3,Baja California Sur,3,La Paz,1,La Paz,Legazpi 1595 esq. Durango,Col. Los Olivos,23040,-110.31083,24.14222,,
2907,"Instituto Tercnológico de la Construcción, Campus Baja California Sur",3,Baja California Sur,3,La Paz,1,La Paz,Melitón Alvañez esq. Del Pirata ,Fracc. Benito Juárez,23090,-110.31083,24.14222,,
1030,Instituto Tecnológico de La Paz,3,Baja California Sur,3,La Paz,1,La Paz,Blvd. Forjadores de Baja California Sur 4720,"Col. 8 de Octubre, 2a. sección",23080,-110.30788,24.1195,,
2928,Instituto Tecnológico Superior de Ciudad Constitución (ITSCC),3,Baja California Sur,3,La Paz,1,La Paz,Marcelo Rubio Ruiz s/n esq. Márquez de León y Pablo L. Martínez,"Col. Cuatro de Marzo, Ciudad de Constitución",23641,-110.31083,24.14222,,
805,Universidad Autónoma de Baja California Sur ,3,Baja California Sur,3,La Paz,1,La Paz,"Carr. al Sur, km 5.5",Fracc. El Calandrio,23080,-110.32533,24.10063,,
1301,"Universidad Pedagógica Nacional, (UPN) U-03A La Paz",3,Baja California Sur,3,La Paz,1,La Paz,Blvd. Francisco J. Mujica s/n ,Col. Reforma,23070,-110.32472,24.11727,,
804,"Centro de Investigaciones Biológicas del Noroeste, S.C. (CIBNOR)",3,Baja California Sur,3,La Paz,1,La Paz,Instituto Politécnico Nacional s/n,Col. Playa Palo de Santa Rita Sur,23096,0,0,,
1243,"Tecnológico de Baja California, Campus Los Cabos",3,Baja California Sur,3,La Paz,1,La Paz,"Libramiento Sur  Km 1 s/n, Jalisco 425",Col. Agrícolas las Garzas,23098,-110.32784,24.11162,,
1031,"Centro Interdisciplinario de Ciencias Marinas CICIMAR, Unidad Baja California Sur",3,Baja California Sur,3,La Paz,1,La Paz,"Av. Instituto Politécnico Nacional s/n, Apdo. Postal 592",Col. Playa Palo de Santa Rita,23096,-110.35086,24.14021,,
1027,"Universidad Mundial, Campus La Paz",3,Baja California Sur,3,La Paz,1,La Paz,Abasolo s/n esq. Colima y Colosio,Col. Pueblo Nuevo,23060,-110.33516,24.14098,,
2904,Instituto Tecnológico de Estudios Superiores de Los Cabos,3,Baja California Sur,8,Los Cabos,1,San José del Cabo,Blvd. Tecnológico y Gandhi s/n,Col. Guaymitas,23483,-109.69475,23.06159,,
1303,"Universidad del Desarrollo Profesional, Campus San José del Cabo",3,Baja California Sur,8,Los Cabos,1,San José del Cabo,"Km. 25 Carret. Transpenisular , Plaza Bugambilias",Col. Santa Rosa,23400,-109.7087,23.09452,,
2947,"Universidad del Desarrollo Profesional, Plantel San José del Cabo",3,Baja California Sur,8,Los Cabos,1,San José del Cabo,"San José, km. 25, Carr. Transpeninsular a San José del Cabo. Plaza Bugambilias",Col. Santa Rosa,83449,-109.69475,23.06159,,
1304,"Universidad Mundial,  Campus Los Cabos",3,Baja California Sur,8,Los Cabos,1,San José del Cabo,Mijares esq. Valerio González,Centro,23400,-109.70188,23.05466,,
193,Universidad del Golfo de California. Plantel Cabo San Lucas,3,Baja California Sur,8,Los Cabos,1,San José del Cabo,Venustiano Carranza 11 esq. Abasolo y Ocampo,Centro,23410,0,0,,
1389,"Universidad del Desarrollo Profesional (UNIDEP),  Campus San Lucas",3,Baja California Sur,8,Los Cabos,54,Cabo San Lucas,Plaza Casa Blanca Carr. Todos Santos esq. Av. Las Brisas núm.4606,Col. Brisas Pacífico,23410,-109.9498,22.90901,,
1241,"Universidad del Golfo de California, Plantel Hojazen",3,Baja California Sur,8,Los Cabos,54,Cabo San Lucas,Av. Los Cabos 4635,Col. Hojazen,23473,0,0,,
1247,Universidad de Tijuana (CUT) Campus Los Cabos,3,Baja California Sur,8,Los Cabos,54,Cabo San Lucas," Carr. Cabo San Lucas-San José del Cabo Km. 6.5, Parcela  4772 p 1/3 ",,23400,0,0,,
2430,Centro Regional de Educación Normal Marcelo Rubio Ruiz,3,Baja California Sur,9,Loreto,1,Loreto,Salvatierra s/n ,Centro,23880,-111.34892,26.00781,,
3010,Instituto Tecnológico Superior de Calkiní en el Estado de Campeche,4,Campeche,1,Calkiní,1,Calkiní,Av. Ah Canul s/n por Carretera Federal,,24900,-90.05056,20.37123,,
2436,Escuela Normal de Licenciatura en Educación Preescolar Profr. Pastor Rodríguez Estrada,4,Campeche,1,Calkiní,1,Calkiní,Calle 22-A s/n,Centro,24900,-90.055,20.38518,,
2434,Escuela Normal de Licenciatura en Educación Especial en Problemas de Aprendizaje,4,Campeche,1,Calkiní,1,Calkiní,Calle 7 s/n,Barrio San Isidro,24902,-90.05564,20.36147,,
2435,Escuela Normal de Licenciatura en Educación Física,4,Campeche,1,Calkiní,1,Calkiní,Calle 22 A s/n entre calle 11 y 13,Centro,24900,0,0,,
2432,"Escuela de Puericultura del Sureste  Dr. Manuel Acevedo Ruiz del Hoyo, A.C.",4,Campeche,2,Campeche,1,San Francisco de Campeche,Av. Resurgimiento 231 ,Col. Miramar,24040,-90.5609,19.83036,,
2972,Instituto Campechano,4,Campeche,2,Campeche,1,San Francisco de Campeche,Calle 10 núm. 357 entre 63 y 65,Centro,24000,-90.53944,19.84481,,
3016,"Universidad IEU, Campus Campeche ",4,Campeche,2,Campeche,1,San Francisco de Campeche,"Av. Adolfo Ruiz Cortines 18, Área Ah Kim Pech",,24014,-90.53944,19.84481,,
2574,"Universidad Valle del Grijalva, Campus Campeche",4,Campeche,2,Campeche,1,San Francisco de Campeche,"Av. Gobernadores 552, Zona Centro entre 49-B y 49-C",Col. Santa Ana,20050,0,0,,
2975,Instituto de Estudios en Derechos Humanos (INEDH),4,Campeche,2,Campeche,1,San Francisco de Campeche,Calle 10 núm. 206,Barrio de Guadalupe,24010,-90.53944,19.84481,,
2036,"Centro de Estudios Superiores del Sureste, Campus Campeche",4,Campeche,2,Campeche,1,San Francisco de Campeche,Av. Resurgimiento 231 ,Col. Miramar,24040,-90.56177,19.8297,,
2324,"Colegio de la Frontera Sur (ECOSUR),  Unidad Campeche",4,Campeche,2,Campeche,1,San Francisco de Campeche,Av. Rancho Polígono 2-A,Col. Cd. Industrial,24500,0,0,,
3003,Instituto Tecnológico de Campeche (ITCAMP),4,Campeche,2,Campeche,1,San Francisco de Campeche,Carr. Campeche-Escárcega Km. 9,Col. Lerma,24500,-90.53944,19.84481,,
635,"Instituto Tecnológico de la Construcción, Campus Campeche",4,Campeche,2,Campeche,1,San Francisco de Campeche,"Av. María Lavalle Urbina Mza. J, Lote 4",Col. San Francisco,24010,0,0,,
2035,Centro de Estudios Clínica e Investigación Psicológica (CECIP) ,4,Campeche,2,Campeche,1,San Francisco de Campeche,Justo Sierra 5,"Col. Pensiones, Barrio de San Román ",24040,-90.54916,19.8356,,
2437,Escuela Normal Superior Federal C.I. Campeche,4,Campeche,2,Campeche,1,San Francisco de Campeche,Av. Casa de Justicia s/n,Col. Fracciorama 2000,24090,-90.52791,19.8247,,
2034,Centro de Actualización del Magisterio Campeche,4,Campeche,2,Campeche,1,San Francisco de Campeche,Av. Casa de Justicia s/n,Col. Fracciorama,24097,-90.52758,19.82471,,
3014,Universidad Anáhuac Mayab,4,Campeche,2,Campeche,1,San Francisco de Campeche,Av. Vicente Suarez 73,Col. Miramar,24030,-90.53944,19.84481,,
2966,Colegio Guadalupe Victoria,4,Campeche,2,Campeche,1,San Francisco de Campeche,Av. Revolucion 318,Col. Santa Ana,24050,-90.53944,19.84481,,
2038,"Centro de Terapia Familiar y de Parejas, S.C.",4,Campeche,2,Campeche,1,San Francisco de Campeche,"Calle 63 núm. 19, entre calle 12 y 14 ",Centro,24000,-90.53908,19.84284,,
2973,Instituto de Administración Pública del Estado de Campeche,4,Campeche,2,Campeche,1,San Francisco de Campeche,Calle 27 núm. 42 entre 14 y 16,Centro,24000,-90.53944,19.84481,,
597,"Instituto Tecnológico y de Estudios Superiores René Descartes, Plantel Campeche",4,Campeche,2,Campeche,1,San Francisco de Campeche,Av. Gobernadores 135-A ,Col. Santa Lucía,94600,0,0,,
2999,"Centro de Educación Continua CEC, Unidad Campeche",4,Campeche,2,Campeche,1,San Francisco de Campeche,Calle 55 núm. 1,Centro,24000,0,0,,
1309,"Universidad Mundo Maya, Campus Campeche",4,Campeche,2,Campeche,1,San Francisco de Campeche,"Calle 10 núm. 17 esq. con calle 11, poblado IMI II",,24560,-90.54672,19.82281,,
79,Universidad Autónoma de Campeche ,4,Campeche,2,Campeche,1,San Francisco de Campeche,Av. Agustín Melgar s/n,Col. Buenavista,24039,-90.556,19.82868,,
1305,Universidad Pedagógica Nacional (UPN) U-041 María Lavalle Urbina,4,Campeche,2,Campeche,1,San Francisco de Campeche,Av. Maestros Campechanos s/n ,Col. Sascalum,24095,-90.52902,19.80386,,
1307,"Universidad Interamericana para el Desarrollo, Campus Campeche",4,Campeche,2,Campeche,1,San Francisco de Campeche,Av. Resurgimiento 611,Col. Bosques de Campeche,24030,0,0,,
2433,Escuela Judicial del Estado de Campeche,4,Campeche,2,Campeche,1,San Francisco de Campeche,Av. Patricio Trueba de Regil 236,Col. San Rafael,24090,-90.53269,19.82382,,
3006,Instituto Tecnológico de Chiná,4,Campeche,2,Campeche,77,Chiná,Calle 11 s/n,Col. Cementerio,24520,-90.49528,19.76932,,
3009,Instituto Tecnológico de Lerma,4,Campeche,2,Campeche,87,Lerma,Km. 10 Carr. Campeche-Champotón,,24500,-90.60056,19.80618,,
3653,Centro de Educación Náutica de Campeche (CENC),4,Campeche,3,Carmen,1,Ciudad del Carmen,Calle 20 s/n,Col. La Puntilla,24139,-91.82532,18.62868,,
1306,Universidad Pedagógica Nacional (UPN) U-042 Cd. del Carmen,4,Campeche,3,Carmen,1,Ciudad del Carmen,Av. Central Oriente s/n entre el estadio Nelson Barrera y el CETEMAR,Col. Playa Norte,24121,-91.84508,18.65702,,
1387,"Universidad del Desarrollo Profesional, Plantel Ciudad Del Carmen",4,Campeche,3,Carmen,1,Ciudad del Carmen,Carr. Carmen - Puerto Real s/n,Col. Belisario Domínguez,24154,-91.79489,18.27043,,
80,Universidad Tecnológica de Campeche,4,Campeche,3,Carmen,1,Ciudad del Carmen,Carr. Federal 180 s/n,Col. San Antonio Cárdenas,24100,0,0,,
3007,"Instituto Tecnológico de la Construcción, Campus Cd. del Carmen ",4,Campeche,3,Carmen,1,Ciudad del Carmen,"Av. de los Pinos Mz. 3, lote 2",Col. Playa Norte,24120,-91.83639,18.63779,,
2037,"Centro de Estudios Superiores Isla del Carmen, A.C. ",4,Campeche,3,Carmen,1,Ciudad del Carmen,Calle 42 núm. 89 entre 31C y 33 ,Col. Cuauhtémoc,24170,0,0,,
1310,"Universidad Mundo Maya, Campus Ciudad del Carmen",4,Campeche,3,Carmen,1,Ciudad del Carmen,Calle 70 entre 35 y 35 A ,Col. San Agustín del Palmar,24110,-91.81854,18.65512,,
2970,Escuela Superior de Turismo Justo Sierra Méndez,4,Campeche,3,Carmen,1,Ciudad del Carmen,Calle 24 núm. 17,Centro,24100,-91.83639,18.63779,,
1308,"Universidad Interamericana para el Desarrollo (UNID), Campus Ciudad del Carmen",4,Campeche,3,Carmen,1,Ciudad del Carmen,Calle 19 núm. 263,Col. Tacubaya,24120,0,0,,
81,Universidad Autónoma del Carmen (UNACAR),4,Campeche,3,Carmen,1,Ciudad del Carmen,Calle 56 núm. 4 esq. Av. Concordia,Col. Benito Juárez,24180,-91.82142,18.64818,,
2976,Instituto de Estudios Superiores de Campeche,4,Campeche,4,Champotón,1,Champotón,Calle 35 núm. 67,Col. Nueva Jerusalén,24400,-90.72389,19.35622,,
428,,4,Campeche,4,Champotón,1,Champotón,Calle 35 núm. 67 ,Col. Nueva Jerusalen,24400,0,0,,
2411,"Colegio de Postgraduados (COLPOS),  Campus Campeche",4,Campeche,4,Champotón,1,Champotón,"Carret. Haltunchén - Edzná Km. 17.5, Sihochac",,24450,0,0,,
3013,Instituto Tecnológico Superior de Escárcega,4,Campeche,9,Escárcega,1,Escárcega,Calle 85 s/n entre 10 B,Col. Unidad Esfuerzo y Trabajo I,24350,-90.73194,18.60431,,
3797,"Universidad Azteca, Plantel Acuña",5,Coahuila de Zaragoza,2,Acuña,1,Ciudad Acuña,Carr. a Presa La Amistad 2435,Col. Aeropuerto,26230,-100.97826,29.33001,,
3814,"Universidad Vizcaya de las Américas, Campus Cd. Acuña",5,Coahuila de Zaragoza,2,Acuña,1,Ciudad Acuña,Guerrero 1188,Centro,26200,-100.97826,29.33001,,
1442,Escuela de Sistemas Profr. Marcial Ruiz Vargas,5,Coahuila de Zaragoza,2,Acuña,1,Ciudad Acuña,Real de Catorce 123,Fracc. Los Reales,26235,-100.9847,29.33727,,
3773,Instituto Tecnológico Superior de Cd. Acuña,5,Coahuila de Zaragoza,2,Acuña,1,Ciudad Acuña,Carr. a Presa La Amistad km. 9,,26220,-100.97826,29.33001,,
367,"Tecnológico de Monterrey, Campus Cd. Juárez",5,Coahuila de Zaragoza,15,Juárez,1,Juárez,Blvd. Tomás Fernández Campos 8945,Col. Parque Industrial Antonio J. Bermúdez,32470,0,0,,
3762,Instituto Superior de Estudios en Seguridad Pública del Estado.  Don Luis González Coss y Matute,5,Coahuila de Zaragoza,17,Matamoros,1,Matamoros,Carr. Torreón-Matamoros Km 7.5,Ejido San Miguel,27440,-103.23038,25.52814,,
3775,Instituto Tecnológico Superior de Monclova,5,Coahuila de Zaragoza,18,Monclova,1,Monclova,Carr. 57 km 4.5,,,-101.41722,26.90124,,
118,Universidad Pedagógica Nacional (UPN) U-054 Monclova,5,Coahuila de Zaragoza,18,Monclova,1,Monclova,Av. de las Granjas 602,Fracc. Escorial,25700,-101.42607,26.93262,,
3788,"Universidad Autónoma de Coahuila, Unidad Norte",5,Coahuila de Zaragoza,18,Monclova,1,Monclova,"Carr. 57, km 5",Zona Universitaria,25710,-101.41722,26.90124,,
1373,"Universidad Americana del Noreste, Campus Monclova",5,Coahuila de Zaragoza,18,Monclova,1,Monclova,Miguel Blanco 140,Centro,25700,-101.42257,26.90127,,
1181,Universidad Tecnológica de la Región Centro de Coahuila,5,Coahuila de Zaragoza,18,Monclova,1,Monclova,"Carr. 57 Norte km 14.5, tramo Monclova Sabinas",,25710,0,0,,
1444,Facultad de Metalurgia,5,Coahuila de Zaragoza,18,Monclova,1,Monclova,Carr. 57 km. 5,Campus Universitario,25710,-101.41508,26.94522,,
3816,"Universidad Vizcaya de las Américas, Campus Monclova",5,Coahuila de Zaragoza,18,Monclova,1,Monclova,Blvd. Benito Juárez 904 esq. Mérida,Col. Chapultepec,25730,-101.41722,26.90124,,
3756,Instituto de Estudios Superiores de Coahuila,5,Coahuila de Zaragoza,18,Monclova,1,Monclova,"Bogotá 35, Blvd. Francisco I. Madero",Col. Guadalupe,25750,-101.41722,26.90124,,
1457,Universidad Metropolitana de Coahuila ,5,Coahuila de Zaragoza,18,Monclova,1,Monclova,Juárez 301 esq. Miguel Blanco,Centro,25700,-101.41522,26.89834,,
3744,Escuela Normal Oficial Dora Madero,5,Coahuila de Zaragoza,24,Parras,1,Parras de la Fuente,Martín Torres 12,Centro,27980,-102.18417,25.43738,,
3765,Instituto Tecnológico de Piedras Negras,5,Coahuila de Zaragoza,25,Piedras Negras,1,Piedras Negras,Instituto Tecnológico 310,Col. Tecnológico,26080,-100.52844,28.70809,,
3789,Facultad de Administración y Contaduría,5,Coahuila de Zaragoza,25,Piedras Negras,1,Piedras Negras,Av. 16 de septiembre 214,Fracc. Las Fuentes,26010,-100.52844,28.70809,,
1374,"Universidad Americana del Noreste,  Campus Piedras Negras",5,Coahuila de Zaragoza,25,Piedras Negras,1,Piedras Negras,Arq. Germán Robles Gil Maza 310,Fracc. San Felipe,26070,-100.54438,28.67908,,
1778,"Centro de Estudios Universitarios Vizcaya de las Américas, Campus Navojoa, Campus Piedras Negras",5,Coahuila de Zaragoza,25,Piedras Negras,1,Piedras Negras,Libramiento Manuel Pérez Treviño 1216,Fracc. Tecnológico,26080,-100.55829,28.6858,,
3802,Universidad Politécnica de Piedras Negras (UPPN),5,Coahuila de Zaragoza,25,Piedras Negras,1,Piedras Negras,Av. Marina Armada de México 501,Col. Politécnica,26094,-100.52844,28.70809,,
86,Universidad Tecnológica del Norte de Coahuila,5,Coahuila de Zaragoza,25,Piedras Negras,1,Piedras Negras,Carr. 57 km 18,Col. Nava,26170,0,0,,
1418,Universidad Pedagógica Nacional (UPN) U-053 Piedras Negras,5,Coahuila de Zaragoza,25,Piedras Negras,1,Piedras Negras,Novel 112,Col. Fovissste 1,26080,-100.56831,28.69166,,
1451,Universidad Autónoma de Piedras Negras,5,Coahuila de Zaragoza,25,Piedras Negras,1,Piedras Negras,Padre de las Casas 83,Centro,26000,-100.51664,28.701,,
406,Universidad Tecnológica de Coahuila,5,Coahuila de Zaragoza,27,Ramos Arizpe,1,Ramos Arizpe,Av. Industria Metalúrgica 2001,Parque Industrial Ramos Arizpe,25900,-100.9368,25.55808,,
3803,Universidad Politécnica Ramos Arizpe (UPRA),5,Coahuila de Zaragoza,27,Ramos Arizpe,1,Ramos Arizpe,Blvd. Sigma s/n,Corredor Industrial Santa María,25900,-100.95078,25.54323,,
3764,Instituto Tecnológico de Estudios Superiores de la Región Carbonífera Dr. Rogelio Montemayor Seguy,5,Coahuila de Zaragoza,28,Sabinas,1,Sabinas,Carr. 57 Km 120,Col. Villa de Agujita,26950,-101.11999,27.84889,,
1375,"Universidad Americana del Noreste,  Campus Sabinas",5,Coahuila de Zaragoza,28,Sabinas,1,Sabinas,Cuauhtémoc 2552 Pte.,Col. Fundadores,26740,-101.13238,27.87892,,
1382,"Universidad del Desarrollo Profesional,  Campus Saltillo",5,Coahuila de Zaragoza,30,Saltillo,1,Saltillo,"Reynosa 431, edif. La Jolla, tercer piso",Col. Los Maestros,25260,-100.99523,25.44543,,
699,Universidad Autónoma Agraria Antonio Narro,5,Coahuila de Zaragoza,30,Saltillo,1,Saltillo,Calz. Antonio Narro 1923,Col. Buenavista,25315,-101.02764,25.36968,,
1445,Facultad de Ingeniería Civil,5,Coahuila de Zaragoza,30,Saltillo,1,Saltillo,Blvd. Venustiano Carranza s/n  ,República Oriente,25280,-100.99201,25.44105,,
3792,"Universidad Autónoma de Durango, Campus Saltillo",5,Coahuila de Zaragoza,30,Saltillo,1,Saltillo,Blvd. Fundadores 8812 esq. Blvd. Santa Lucia,Fracc. San José de los Cerritos,,-100.99972,25.42166,,
3741,Escuela Normal de Educación Física de Saltillo,5,Coahuila de Zaragoza,30,Saltillo,1,Saltillo,David Berlanga s/n,Unidad Deportiva Campo Redondo,25280,-100.99972,25.42166,,
2068,Corporación Méxicana de Investigación en Materiales,5,Coahuila de Zaragoza,30,Saltillo,1,Saltillo,Ciencia y Tecnología 790 ,Col. Saltillo 400,25290,-100.95338,25.39855,,
2450,Escuela Normal de Educación Preescolar del Estado de Coahuila,5,Coahuila de Zaragoza,30,Saltillo,1,Saltillo,Blvd. Nazario S. Ortiz s/n ,Unidad Campo Redondo,25280,-101.00676,25.42641,,
14,"Universidad del Valle de México, Campus Saltillo",5,Coahuila de Zaragoza,30,Saltillo,1,Saltillo,Tezcatlipoca 2301,Fracc. El Portal,25204,-100.9633,25.47756,,
3747,Escuela Normal Superior del Estado de Coahuila,5,Coahuila de Zaragoza,30,Saltillo,1,Saltillo,Blvd. Nazario S. Ortiz Garza s/n esq. Eugenio Aguirre Benavides y David Berlanga,Centro,25284,-100.99972,25.42166,,
3755,Instituto de Enseñanza y Capacitación,5,Coahuila de Zaragoza,30,Saltillo,1,Saltillo,Blvd. Jesus Valdez Sanchez 803,Col. República Oriente,25280,-100.99972,25.42166,,
2063,Centro de Investigación en Química Aplicada ,5,Coahuila de Zaragoza,30,Saltillo,1,Saltillo,Blvd. Ing. Enrique Reyna Hermosillo 140 ,Col.San José de los Cerritos,25294,-100.9676,25.4591,,
476,"Instituto Tecnológico y de estudios Superiores de Monterrey, Campus Saltillo",5,Coahuila de Zaragoza,30,Saltillo,1,Saltillo,Juan de La Barrera 1241,Col. Las Cumbres,25270,0,0,,
1440,Universidad Autónoma de Coahuila,5,Coahuila de Zaragoza,30,Saltillo,1,Saltillo,Blvd. Venustiano Carranza s/n,Col. República Oriente,25280,-100.99244,25.43986,,
3771,Instituto Tecnológico de Saltillo,5,Coahuila de Zaragoza,30,Saltillo,1,Saltillo,Blvd. Venustiano Carranza 2400,Col. Tecnológico,25280,-100.99972,25.42166,,
2372,Escuela Superior de Música,5,Coahuila de Zaragoza,30,Saltillo,1,Saltillo,Avenidas 3 y 16,Col. Antigua Lourdes,25070,-101,25.39026,,
2449,Benemérita Escuela Normal de Coahuila,5,Coahuila de Zaragoza,30,Saltillo,1,Saltillo,Calz. de los Maestros 858 Pte.,Centro,25000,-101.00692,25.42604,,
247,Universidad Interamericana del Norte Campus Saltillo,5,Coahuila de Zaragoza,30,Saltillo,1,Saltillo,Blvd. Venustiano Carranza 4925,Col. Nueva España,25210,0,0,,
3817,"Universidad Vizcaya de las Américas, Campus Saltillo",5,Coahuila de Zaragoza,30,Saltillo,1,Saltillo,Blvd. Venustiano Carranza 4925 esq. Blvd. Nazario Ortiz Garza,,25022,-100.99972,25.42166,,
3800,"Universidad Nacional de Estudios Avanzados (UNEA), Campus Saltillo",5,Coahuila de Zaragoza,30,Saltillo,1,Saltillo,Carmen Aguirre de Fuentes 526,Centro,25000,-100.99972,25.42166,,
2064,"Centro de Investigación y de Estudios Avanzados, Unidad Saltillo (IPN)",5,Coahuila de Zaragoza,30,Saltillo,1,Saltillo,Av. Industria Metalurgica 1062,Col. Parque Industrial Saltillo-Ramos Arizpe,25900,-100.99972,25.42166,,
3746,Escuela Normal Regional de Especialización,5,Coahuila de Zaragoza,30,Saltillo,1,Saltillo,Blvd. Nazario Ortiz Garza s/n,Col. Topochico,25280,-100.99972,25.42166,,
1416,Universidad Pedagógica Nacional (UPN) U-051 Campus Saltillo,5,Coahuila de Zaragoza,30,Saltillo,1,Saltillo,Blvd. Nazario S. Ortiz Garza esq. Blvd. Francisco Coss,Centro,25000,-100.98245,25.42726,,
3753,Instituto de Ciencia y Cultura,5,Coahuila de Zaragoza,30,Saltillo,1,Saltillo,Salazar 896,Centro,25000,-100.99972,25.42166,,
1455,"Universidad Interamericana para el Desarrollo, Campus Saltillo",5,Coahuila de Zaragoza,30,Saltillo,1,Saltillo,Av. El Rosario 142 ,Fracc. El Rosarito,25297,-100.95367,25.45523,,
1446,Facultad de Arquitectura,5,Coahuila de Zaragoza,30,Saltillo,1,Saltillo,Blvd. Venustiano Carranza s/n ,República Oriente,25280,-100.99193,25.44037,,
3751,Facultades Universitarias de Saltillo,5,Coahuila de Zaragoza,30,Saltillo,1,Saltillo,Blvd. Jesús Valdez Sánchez 1194,,25060,-100.99972,25.42166,,
3781,Universidad del Valle de Santiago,5,Coahuila de Zaragoza,30,Saltillo,1,Saltillo,Manuel Acuña 368,Centro,25000,-100.99972,25.42166,,
344,Facultad de Ciencias Físico Matemáticas,5,Coahuila de Zaragoza,30,Saltillo,1,Saltillo,"Salvador González Lobo, Edif. D, Conjunto Universitario",Col. República Oriente ,25280,-100.99158,25.4406,,
1371,"Universidad Americana del Noreste, Campus Saltillo",5,Coahuila de Zaragoza,30,Saltillo,1,Saltillo,Blvd. José Musa de León,Col. Los Pinos,25290,-100.9682,25.45649,,
1456,Universidad La Salle Saltillo,5,Coahuila de Zaragoza,30,Saltillo,1,Saltillo,Carr. Antigua Arteaga km 8 ,Col. Las Delicias ,25298,-100.90805,25.45858,,
3748,Escuela Superior de Agricultura y Veterinaria,5,Coahuila de Zaragoza,31,San Buenaventura,1,San Buenaventura,Constitución 883.83 km,,25504,-101.55003,27.06026,,
3743,Escuela Normal Experimental de San Juan de Sabinas,5,Coahuila de Zaragoza,32,San Juan de Sabinas,1,San Juan de Sabinas,Ramos Arizpe s/n,Col. Villa de San Juan de Sabinas,26900,-101.30329,27.92939,,
1441,Escuela Superior de Ingeniería Lic. Adolfo López Mateos,5,Coahuila de Zaragoza,32,San Juan de Sabinas,14,Nueva Rosita,Blvd. Adolfo López Mateos s/n,,26800,-101.21698,27.9339,,
1459,"Universidad Metropolitana de Monterrey, Campus Nueva Rosita",5,Coahuila de Zaragoza,32,San Juan de Sabinas,14,Nueva Rosita,Reforma 117 ,Col. Comercial Nueva Rosita,26860,-101.22816,27.93756,,
3749,Escuela Superior de Contaduría y Administración,5,Coahuila de Zaragoza,32,San Juan de Sabinas,14,Nueva Rosita,"Av. Monterrey, km. 969.74",,26860,-101.21698,27.9339,,
3777,Instituto Tecnológico Superior de San Pedro de las Colonias,5,Coahuila de Zaragoza,33,San Pedro,1,San Pedro,Calz. del Tecnológico 53,Col. El Tecnológico,27800,-102.98316,25.75778,,
1383,"Universidad del Desarrollo Profesional (UNIDEP), Plantel Torreón",5,Coahuila de Zaragoza,35,Torreón,1,Torreón,"Blvd. Torreón Matamoros 5840, Mz. 304",Fracc. Los Ángeles Torreón,27268,-103.45759,25.54344,,
3757,Instituto de Estudios Superiores en Moda y Diseno,5,Coahuila de Zaragoza,35,Torreón,1,Torreón,Presa de las Vírgenes 264,Col. Rovirosa Wade,,-103.45306,25.54175,,
3793,"Universidad Autónoma de Durango, Campus Torreón",5,Coahuila de Zaragoza,35,Torreón,1,Torreón,"Macrolote 16 y 17, Prol. Av. Juárez s/n",Col. La Joya,27271,-103.45306,25.54175,,
3737,"Centro Mexicano de Programación Neurolinguística, Sede Torreón",5,Coahuila de Zaragoza,35,Torreón,1,Torreón,Av. Juan Terrazas 60,Col. Ampliación los Ángeles,27148,-103.45306,25.54175,,
3745,Escuela Normal Particular Nueva Laguna,5,Coahuila de Zaragoza,35,Torreón,1,Torreón,Territorio Santos Modelo 5550,Col. Ampliación Senderos,,-103.45306,25.54175,,
3758,Instituto Dídaxis de Estudios Superiores,5,Coahuila de Zaragoza,35,Torreón,1,Torreón,Av. Ocampo 225 Pte.,Centro,27000,-103.45306,25.54175,,
3818,"Universidad Vizcaya de las Américas, Campus Torreón",5,Coahuila de Zaragoza,35,Torreón,1,Torreón,"Blvd. Pedro Rodríguez Triana 747, Mz. 442",Col. Parque Industrial Oriente,27272,-103.45306,25.54175,,
3761,Instituto Mexicano de Estudios Superiores,5,Coahuila de Zaragoza,35,Torreón,1,Torreón,Rayon Norte 245,Centro,27000,-103.45306,25.54175,,
682,Universidad Tecnológica de Torreón,5,Coahuila de Zaragoza,35,Torreón,1,Torreón,Carr. Torreón-Matamoros km 10,Ejido El Águila,27400,-103.32099,25.53194,,
632,"Instituto Tecnológico y de Estudios Superiores de Monterrey, Campus Laguna",5,Coahuila de Zaragoza,35,Torreón,1,Torreón,Paseo del Tecnológico 751,Col. Ampliación La Rosita,27250,0,0,,
498,Universidad Iberoamericana Torreón,5,Coahuila de Zaragoza,35,Torreón,1,Torreón,Calz. Iberoamericana 2255,,27420,-103.40021,25.6094,,
82,Universidad Pedagógica Nacional (UPN) U-052 Torreón,5,Coahuila de Zaragoza,35,Torreón,1,Torreón,Av. Allende esq. La Paz ,Fracc. Nueva California,27089,-103.39785,25.54038,,
1460,"Universidad TecMilenio, Campus Laguna",5,Coahuila de Zaragoza,35,Torreón,1,Torreón,Av. Ruta del Aguila 2121,Ejido La Unión,27367,-103.41051,25.60468,,
3738,Enseñanza e Investigación Superior,5,Coahuila de Zaragoza,35,Torreón,1,Torreón,Ruta del Águila 2121 esq. Av. Tecmilenio,Ejido La Unión,27367,-103.45306,25.54175,,
3772,Instituto Tecnológico de Torreón,5,Coahuila de Zaragoza,35,Torreón,1,Torreón,Carr. Torreon-San Pedro km 7.5,Ejido Ana,71170,-103.45306,25.54175,,
3759,Instituto Grecolatino,5,Coahuila de Zaragoza,35,Torreón,1,Torreón,Av Morelos 538,Centro,27000,-103.45306,25.54175,,
1372,"Universidad Americana del Noreste, Campus Torreón",5,Coahuila de Zaragoza,35,Torreón,1,Torreón,El Eriazo del Nte y Periférico s/n,,27119,-103.44795,25.57476,,
1452,"Universidad del Valle de México (UVM), Campus Torreón",5,Coahuila de Zaragoza,35,Torreón,1,Torreón,"Carr. Torreón San Pedro 2155, km 3.7",Ejido de la Unión,27367,-103.40169,25.60608,,
249,Universidad Interamericana del Norte<br> Campus Torreón,5,Coahuila de Zaragoza,35,Torreón,1,Torreón,Calz. José Vascocelos 345,Provitec,27270,-103.39583,25.53282,,
3763,Instituto Tecnológico Agropecuario Nº 10 de Torreón,5,Coahuila de Zaragoza,35,Torreón,1,Torreón,Carr. Torreon-San Pedro km 7.5,Ejido Ana,27170,-103.45306,25.54175,,
274,Instituto Tecnológico de la Laguna,5,Coahuila de Zaragoza,35,Torreón,1,Torreón,Blvd. Revolución esq. Av. Instituto Tecnológico de La Laguna s/n,,27000,0,0,,
655,"Centro Universitario Angloamericano, Torreón",5,Coahuila de Zaragoza,35,Torreón,1,Torreón,Av. Juárez 2395 A Ote.,Centro,27000,-103.42244,25.53837,,
1450,Universidad Autónoma de La Laguna,5,Coahuila de Zaragoza,35,Torreón,1,Torreón,Av. Universidad s/n ,Col. El Tajito,27100,0,0,,
3760,Instituto Internacional de Administración,5,Coahuila de Zaragoza,35,Torreón,1,Torreón,Av. Saltillo 400 núm. 469,Col. Ampliación La Rosita,27250,-103.45306,25.54175,,
2451,Escuela Normal de Torreón,5,Coahuila de Zaragoza,35,Torreón,1,Torreón,Paseo de la Rosita s/n,Col. Campestre La Rosita,27250,-103.41585,25.52269,,
3798,"Universidad Azteca, Plantel Zaragoza",5,Coahuila de Zaragoza,38,Zaragoza,1,Zaragoza,Matamoros Oriente 702,Centro,26450,-100.91762,28.48704,,
3823,"Instituto Superior de Educación Normal de Colima, Profr. Gregorio Torres Quintero",6,Colima,2,Colima,1,Colima,Av. de los Maestros esq. Aquiles Serdan s/n,Col. Magisterial,,-103.72812,19.24292,,
3821,"Instituto de Estudios Superiores ISIMA, Plantel Colima",6,Colima,2,Colima,1,Colima,"Av. de los Maestros 320, planta alta",Col. La Armonía,28020,-103.72812,19.24292,,
411,"Tecnológico de Monterrey, Campus Colima",6,Colima,2,Colima,1,Colima,Ignacio Sandoval 1410 esq. Manuel Payno,Col. Jardines de Vistahermosa,28017,-103.70835,19.25589,,
3822,Instituto Multitécnica Profesional,6,Colima,2,Colima,1,Colima,Río Marabasco 449,Col. Placetas Estadio,20050,-103.72812,19.24292,,
1777,"Universidad  Vizcaya de las Américas, Campus Colima",6,Colima,2,Colima,1,Colima,Tercer Anillo Periférico  813,Fracc. Puerta Paraíso,28000,-103.69109,19.26081,,
2513,Delegación Regional  núm.3 Colima ,6,Colima,2,Colima,1,Colima,Av. Universidad 333 ,Col. Las Víboras,28040,-103.70042,19.24892,,
1562,"Universidad del Valle de Atemajac, Plantel Colima (UNIVA)",6,Colima,2,Colima,1,Colima,Av. San Fernando 460,Centro,28000,-103.71477,19.24655,,
1461,Universidad Pedagógica Nacional  U-061 Colima,6,Colima,2,Colima,1,Colima,Gabriel León Polanco 262,Col. Alfredo V. Bonfil,28979,-103.73505,19.27476,,
1469,"Universidad TecMilenio, Campus Colima",6,Colima,2,Colima,1,Colima,Av. Ignacio Sandoval 1410 ,Jardines Vista Hermosa,28017,-103.70883,19.25628,,
409,Universidad de Colima,6,Colima,2,Colima,1,Colima,Av. Universidad 333,Col. Las Víboras,28040,-103.69879,19.2486,,
1467,Delegación Regional núm. 4 Coquimatlán,6,Colima,4,Coquimatlán,1,Coquimatlán,Km. 9 Carr. Colima-Coquimatlán,,28400,-103.80414,19.21106,,
3820,"Instituto de Capacitación y Educación Profesional, Campus Manzanillo",6,Colima,7,Manzanillo,1,Manzanillo,Blvd. Miguel de la Madrid 5750,Col. Las Brisas,28867,-104.31638,19.05321,,
2637,Universidad Tecnológica de Manzanillo,6,Colima,7,Manzanillo,1,Manzanillo,Camino hacias las Humedades s/n,Col. Salagua,28869,-104.31474,19.14023,,
2639,Universidad Vizcaya de las Américas Campus Manzanillo,6,Colima,7,Manzanillo,1,Manzanillo,Miguel de la Madrid 1088,Col. Salahua,28869,-104.32988,19.1035,,
1394,"Universidad del Desarrollo Profesional, Plantel Manzanillo",6,Colima,7,Manzanillo,1,Manzanillo,Av. Manzanillo 315,Col. La Peña,29860,-104.30241,19.06826,,
1464,"Universidad de Colima, Delegación Manzanillo ",6,Colima,7,Manzanillo,1,Manzanillo,Carr. Manzanillo-Cihuatlan km 20.5,,28860,0,0,,
589,Instituto de Educación Superior de Tecomán,6,Colima,9,Tecomán,1,Tecomán,Km. 1 Carr. Costera Tecomán,Playa Azul,28100,0,0,,
1465,Delegación Regional núm. 2 Tecomán ,6,Colima,9,Tecomán,1,Tecomán,Km. 40 Carr. Colima-Manzanillo,,28930,-103.89728,18.94883,,
1561,Instituto Autónomo de Educación de Tecomán,6,Colima,9,Tecomán,1,Tecomán,Carr. Costera km. 1 Tecomán-Playa azúl,,28100,-103.86511,18.89572,,
3799,"Universidad Pedagógica Nacional, sede Villa de Alvarez",6,Colima,10,Villa de Álvarez,1,Ciudad de Villa de Álvarez,Gabriel León Polanco 262,Col. Alfredo V. Bonfil,28979,-103.73502,19.27471,,
1468,Delegación Regional núm. 5 Villa de Álvarez ,6,Colima,10,Villa de Álvarez,1,Ciudad de Villa de Álvarez,Av. J. Ortiz de Domínguez 64,Col. La Hacienda,28950,-103.74171,19.26501,,
2638,Instituto Tecnológico de Colima,6,Colima,10,Villa de Álvarez,1,Ciudad de Villa de Álvarez,Av. Tecnológico 1,Col. Liberación,28976,-103.72398,19.26403,,
1323,Universidad del Pacífico de Chiapas,7,Chiapas,9,Arriaga,1,Arriaga,6a. Av. Poniente 7,Centro,30450,0,0,,
1316,Universidad Autónoma de Chiapas (UNACH) Escuela de Ciencias Administrativas,7,Chiapas,9,Arriaga,1,Arriaga,Carr. Arriaga-Tapanatepec km. 1,,30450,0,0,,
3065,Escuela Normal de Licenciatura en Educación Primaria del Occidente de Chiapas,7,Chiapas,17,Cintalapa,1,Cintalapa de Figueroa,Km. 1001 Carr. Panamericana Urbana Ejidal,,30400,-93.72028,16.69868,,
3168,Instituto Tecnológico Superior de Cintalapa,7,Chiapas,17,Cintalapa,1,Cintalapa de Figueroa,Carr. Panamericana km. 995,,30400,-93.72028,16.69868,,
2044,Centro Profesional Universitario,7,Chiapas,17,Cintalapa,1,Cintalapa de Figueroa,Calle 2a. Poniente 587,Barrio de Guadalupe,30400,0,0,,
1334,Universidad Valle del Grijalva Campus Cintalapa,7,Chiapas,17,Cintalapa,1,Cintalapa de Figueroa,Carr. Internacional Km. 1002,Rancho El Muray,,0,0,,
3177,"Universidad Autónoma de Chiapas, Facultad de Ciencias Administrativas",7,Chiapas,19,Comitán de Domínguez,1,Comitán de Domínguez,36ª Sur Poniente 50,Col. Mariano N. Ruíz,30077,-92.13583,16.25246,,
1333,"Universidad Valle de Grijalva, Campus Comitán",7,Chiapas,19,Comitán de Domínguez,1,Comitán de Domínguez,Carr. Comitán - La Trinitaria Km 1262,,29020,-92.0862,16.16472,,
3166,Instituto Tecnológico de Comitán,7,Chiapas,19,Comitán de Domínguez,1,Comitán de Domínguez,Av. Instituto Tecnológico km 3.5,Col. Yocnajab el Rosario,30000,-92.13583,16.25246,,
1315,"Universidad Autónoma de Chiapas (UNACH), Facultad de Ciencias Agrícolas",7,Chiapas,37,Huehuetán,1,Huehuetán,Entronque Carr. Costera y Pueblo de Huehuetán,,30660,0,0,,
3088,Escuela Normal de Licenciatura en Educación Primaria Dr. Manuel Velasco Suárez,7,Chiapas,37,Huehuetán,1,Huehuetán,8a. calle Poniente s/n,,30670,-92.38417,15.01852,,
72,Universidad Tecnológica de la Selva,7,Chiapas,59,Ocosingo,1,Ocosingo,"Entronque Toniná Km. 0.5, Carr. Ocosingo-Altamirano",,29950,-92.06691,16.89628,,
473,Centro de Estudios Superiores Benemérito de las Américas,7,Chiapas,61,Ocozocoautla de Espinosa,1,Ocozocoautla de Espinosa,Carr. Ocozocuautla - Ocuilapa 1190 ,Barrio Cruz Blanca,29140,-93.38295,16.77149,,
1318,Universidad Autónoma de Chiapas (UNACH) Campus VII Pichucalco Escuela de Contaduría y Administración,7,Chiapas,68,Pichucalco,1,Pichucalco,"Blvd. Universitario s/n, Libramiento de la Ciudad",Col. Napana,29520,0,0,,
1331,Universidad Valle del Grijalva (UVG) Campus Pichucalco,7,Chiapas,68,Pichucalco,1,Pichucalco,Carr. Pichucalco-Teapa km.1.5,Centro,29520,0,0,,
3218,Universidad Linda Vista,7,Chiapas,72,Pueblo Nuevo Solistahuacán,1,Pueblo Nuevo Solistahuacán,Ex-Finca Santa Cruz 1,,29750,-92.89722,17.15757,,
2325,El Colegio de la Frontera Sur ,7,Chiapas,78,San Cristóbal de las Casas,1,San Cristóbal de las Casas,Carr. Panamericana y Periférico Sur s/n,Barrio de María Auxiliadora ,29290,-92.61524,16.70592,,
3121,Escuela Superior de Educación Física de San Cristóbal de las Casas,7,Chiapas,78,San Cristóbal de las Casas,1,San Cristóbal de las Casas,Km. 1172 Carr. Panamericana,,29296,-92.6375,16.73702,,
3221,"Universidad Mesoamericana, Campus San Cristóbal de las Casas",7,Chiapas,78,San Cristóbal de las Casas,1,San Cristóbal de las Casas,Ricardo Díaz Martínez 17,Col. El Relicario,29289,-92.6375,16.73702,,
3024,"Centro Universitario San Marcos, San Cristóbal ",7,Chiapas,78,San Cristóbal de las Casas,1,San Cristóbal de las Casas,Ramón Corona 88,Barrio de Sta. Lucia,29250,-92.6375,16.73702,,
1319,"Universidad Autónoma de Chiapas, Campus III San Cristóbal de las Casas",7,Chiapas,78,San Cristóbal de las Casas,1,San Cristóbal de las Casas,Presidente Obregón s/n,Col. Revolución Mexicana,29220,-92.63127,16.74402,,
3131,Instituto de Administración Pública de Chiapas,7,Chiapas,78,San Cristóbal de las Casas,1,San Cristóbal de las Casas,5a. Poniente Sur 127 1er. y 2o piso,Centro,29000,-92.6375,16.73702,,
1184,Universidad Intercultural de Chiapas,7,Chiapas,78,San Cristóbal de las Casas,1,San Cristóbal de las Casas,Corral de Piedra 2,"Col.  Corral de Piedra, Ciudad Universitaria",29299,0,0,,
3045,Escuela Normal de Lic. en Educación Preescolar Lic. Manuel Larrainzar,7,Chiapas,78,San Cristóbal de las Casas,1,San Cristóbal de las Casas,Calz. Tlaxcala Km.1 ,Col. Tlaxcala,29210,-92.6375,16.73702,,
3151,Instituto de Estudios Superiores Manuel José de Rojas,7,Chiapas,78,San Cristóbal de las Casas,1,San Cristóbal de las Casas,Av. Río Verde esq. Del Molino s/n,Col. La Isla,29240,-92.6375,16.73702,,
3119,Escuela Normal Experimental Fray Matías Antonio de Córdova  y Ordóñez,7,Chiapas,78,San Cristóbal de las Casas,1,San Cristóbal de las Casas,"Periférico Sur s/n Km 1, AP 198",Col. María Auxiliadora,29290,-92.6375,16.73702,,
2043,Centro de Investigaciones y Estudios Superiores en Antropología Social<br>Unidad Sureste,7,Chiapas,78,San Cristóbal de las Casas,1,San Cristóbal de las Casas,Carr. San Cristóbal-San Juan Chamula Km. 3.5 ,Barrio La Quinta San Martín,29247,-92.67402,16.75689,,
1322,Universidad de Los Altos de Chiapas,7,Chiapas,78,San Cristóbal de las Casas,1,San Cristóbal de las Casas,Periférico  Sur 1016 ,Barrio de María Auxiliadora,29290,-92.62138,16.706,,
3174,"Universidad Autónoma Chapingo, Centro Regional Universitario Chiapas",7,Chiapas,78,San Cristóbal de las Casas,1,San Cristóbal de las Casas,Diego de Masariego 85 ,Barrio La Merced,29240,-92.6375,16.73702,,
3223,Universidad Politécnica de Chiapas ,7,Chiapas,86,Suchiapa,1,Suchiapa,Carr. Tuxtla Gutiérrez-Portillo Zaragoza Km 21+500,Col. Las Brisas,29150,-93.10472,16.62196,,
1320,Universidad Autónoma de Chiapas (UNACH) Campus IV Tapachula,7,Chiapas,89,Tapachula,1,Tapachula de Córdova y Ordóñez,Carr. Puerto Madero km 1.5 s/n,Centro,30780,0,0,,
429,Universidad TecMilenio Campus Tapachula,7,Chiapas,89,Tapachula,1,Tapachula de Córdova y Ordóñez,Carr. Puerto Chiapas Km 6.0 esq. Libramiento Sur s/n,,30790,-92.28777,14.86857,,
1326,"Universidad Interamericana para el Desarrollo, Campus Tapachula",7,Chiapas,89,Tapachula,1,Tapachula de Córdova y Ordóñez,9a. Av. Norte 105,"Col. Los Naranjos, Centro",30700,-92.25207,14.91431,,
3093,Escuela Normal de Licenciatura en Educación Primaria Fray Matías de Córdoba,7,Chiapas,89,Tapachula,1,Tapachula de Córdova y Ordóñez,6a. Av. Norte y  33 calle Poniente s/n,Col. 5 de Febrero,30710,-92.26417,14.91107,,
2045,"Centro Universitario Interamericano del Pacífico, Tapachula",7,Chiapas,89,Tapachula,1,Tapachula de Córdova y Ordóñez,Francisco Villa 6,Col. Santa Cecilia,30739,0,0,,
3224,Universidad Politécnica de Tapachula,7,Chiapas,89,Tapachula,1,Tapachula de Córdova y Ordóñez,4° Av. Sur 2 esq. Central Poniente y 2da Poniente,Centro,30700,-92.26417,14.91107,,
3167,Instituto Tecnológico de Tapachula,7,Chiapas,89,Tapachula,1,Tapachula de Córdova y Ordóñez,Km. 2 Carr. Puerto Madero,Centro,30700,-92.26417,14.91107,,
1329,"Universidad del Soconusco, Campus Tapachula",7,Chiapas,89,Tapachula,1,Tapachula de Córdova y Ordóñez,Blvd. Belisario Domínguez Mz. 1,Col. Los Laureles I,30780,-92.26529,14.90773,,
3022,Centro Universitario en Formación Artística,7,Chiapas,89,Tapachula,1,Tapachula de Córdova y Ordóñez,Av. Central Sur 125,Centro,30700,-92.26417,14.91107,,
1313,Universidad Pedagógica Nacional (UPN) U-072 Tapachula,7,Chiapas,89,Tapachula,1,Tapachula de Córdova y Ordóñez,Carr. Pista Secundaria y Antiguo Aeropuerto s/n,Col. Solidaridad 2000,30798,-92.29614,14.89197,,
3041,Escuela Normal de Licenciatura en Educación Física de Tapachula,7,Chiapas,89,Tapachula,1,Tapachula de Córdova y Ordóñez,Km. 4.5 Carr. Puerto Madero,,30700,-92.26417,14.91107,,
2326,"El Colegio de la Frontera Sur, Unidad Tapachula ",7,Chiapas,89,Tapachula,1,Tapachula de Córdova y Ordóñez,Carr. Antiguo Aeropuerto Km 2.5,,30700,-92.2678,14.8973,,
3056,Escuela Normal de Licenciatura en Educación Preescolar Rosario Castellanos,7,Chiapas,89,Tapachula,1,Tapachula de Córdova y Ordóñez,Carr. Antigüo Aeropuerto a  Tapachula Joaquín del Pino,,30797,-92.26417,14.91107,,
173,Centro de Estudios Superiores de Tapachula,7,Chiapas,89,Tapachula,1,Tapachula de Córdova y Ordóñez,"Tabachines, Mz. 36, lotes 32 y 33",Fracc. Los Laureles,30780,-92.26701,14.90894,,
3137,Instituto de Estudios Superiores Aduanales,7,Chiapas,89,Tapachula,1,Tapachula de Córdova y Ordóñez,5ª calle Oriente 21  esq. 1ª y 3ª Norte,,37000,-92.26417,14.91107,,
1325,Universidad del Tacaná,7,Chiapas,89,Tapachula,1,Tapachula de Córdova y Ordóñez,8a Av. Sur 54,Fracc. Los Laureles,30830,0,0,,
3140,"Instituto de Estudios Superiores de Chiapas, Campus Tapachula",7,Chiapas,89,Tapachula,1,Tapachula de Córdova y Ordóñez,30 calle Oriente 4,Col. La Palma,30727,-92.26417,14.91107,,
1332,Universidad Valle del Grijalva Campus Tapachula,7,Chiapas,89,Tapachula,1,Tapachula de Córdova y Ordóñez,Prol. de la 10a. Sur 162,Fracc. Hortalizas Japonesas,,0,0,,
1317,"Escuela de Ciencias Administrativas, Unidad Istmo-Costa Tonalá. Campus IX ",7,Chiapas,97,Tonalá,1,Tonalá,Carr. Tonalá-Paredón km. 4+200,Col. Tonalá Centro,30500,0,0,,
1324,Universidad del Pacífico de Chiapas<br> Campus Tonalá,7,Chiapas,97,Tonalá,1,Tonalá,Privada Las Palmas 2,Fracc. Cocoteros,30500,0,0,,
3139,Instituto de Estudios Superiores de Chiapas,7,Chiapas,101,Tuxtla Gutiérrez,1,Tuxtla Gutiérrez,Blvd. Paso Limón 244,Col. Paso Limón,29045,-93.115,16.75397,,
2440,Escuela de Terapia Física DIF,7,Chiapas,101,Tuxtla Gutiérrez,1,Tuxtla Gutiérrez,Libramiento Norte Ote. s/n,Col. Patria Nueva,29045,0,0,,
2439,Escuela de Medicina Alternativa,7,Chiapas,101,Tuxtla Gutiérrez,1,Tuxtla Gutiérrez,Av. Azucena 101,Col. Los Laureles,29020,0,0,,
3162,Instituto Privado del Sur de México,7,Chiapas,101,Tuxtla Gutiérrez,1,Tuxtla Gutiérrez,2a. Norte Oriente 460,Centro,29000,-93.115,16.75397,,
3132,Instituto de Ciencias y Especialidades de Chiapas,7,Chiapas,101,Tuxtla Gutiérrez,1,Tuxtla Gutiérrez,7a. Oriente 1-C,Centro,30700,-93.115,16.75397,,
3133,Instituto de Educación Superior en Gastronomía y Arte Culinario de Tuxtla,7,Chiapas,101,Tuxtla Gutiérrez,1,Tuxtla Gutiérrez,Calle 11 Oriente Norte 447,Centro,29000,-93.115,16.75397,,
1311,Escuela de Estudios Superiores de Tuxtla,7,Chiapas,101,Tuxtla Gutiérrez,1,Tuxtla Gutiérrez,Av. Palma Camedor 509,Col. Las Palmas,29000,0,0,,
736,Universidad Autónoma de Chiapas (UNACH),7,Chiapas,101,Tuxtla Gutiérrez,1,Tuxtla Gutiérrez,"Blvd. Belisario Domínguez Km. 1081, Colina Universitaria",Col. Terán,29050,0,0,,
3019,Centro de Estudios Superiores Benemérito de las Américas,7,Chiapas,101,Tuxtla Gutiérrez,1,Tuxtla Gutiérrez,Blvd. Belisario Domínguez 3525,Centro,29000,-93.115,16.75397,,
1312,Universidad Pedagógica Nacional (UPN) U-071 Tuxtla Gutiérrez,7,Chiapas,101,Tuxtla Gutiérrez,1,Tuxtla Gutiérrez,Av. Simón Bolivar 680,Col. 24 de Junio,29047,-93.09239,16.7737,,
3127,Escuela Superior de Trabajo Social Jesús Aquino Juan,7,Chiapas,101,Tuxtla Gutiérrez,1,Tuxtla Gutiérrez,Carr. Tuxtla Gutiérrez-Chiapa de Corzo Km 6.5,Col. Satélite Loma Larga,29000,-93.115,16.75397,,
3020,Centro de Formación Profesional de Chiapas Maya,7,Chiapas,101,Tuxtla Gutiérrez,1,Tuxtla Gutiérrez,Quinta Norte Poniente 1285,,29000,-93.115,16.75397,,
2040,Centro de Actualización del Magisterio Tuxtla Gutiérrez,7,Chiapas,101,Tuxtla Gutiérrez,1,Tuxtla Gutiérrez,Palacio Federal 3er. piso,Centro,29000,-93.11298,16.76175,,
273,Centro de Estudios Profesionales de Chiapas Fray Bartolomé de las Casas,7,Chiapas,101,Tuxtla Gutiérrez,1,Tuxtla Gutiérrez,Blvd. Belisario Domínguez 1030-10,Centro,29000,-93.13911,16.75521,,
3212,"Universidad del Sur, Tuxtla Gutiérrez",7,Chiapas,101,Tuxtla Gutiérrez,1,Tuxtla Gutiérrez,4a. Oriente Sur 354,Centro,29000,-93.115,16.75397,,
3135,Instituto de Especialización para la Competitividad,7,Chiapas,101,Tuxtla Gutiérrez,1,Tuxtla Gutiérrez,3ra. Norte Poniente 1395,,29000,-93.115,16.75397,,
3213,"Universidad IEU, Campus Tuxtla Gutiérrez ",7,Chiapas,101,Tuxtla Gutiérrez,1,Tuxtla Gutiérrez,Av. 1a. Norte-Poniente 1016,Centro,29000,-93.115,16.75397,,
2441,Escuela Gestalt de Arte y Diseño de Tuxtla,7,Chiapas,101,Tuxtla Gutiérrez,1,Tuxtla Gutiérrez,5a. Poniente Nte. 1443 ,Centro,29000,-93.1194,16.74173,,
3152,Instituto de Estudios Superiores Sor Juana Inés de la Cruz,7,Chiapas,101,Tuxtla Gutiérrez,1,Tuxtla Gutiérrez,2a. Av. Norte 741 esq. 6a. y 7a. Oriente,Centro,29000,-93.115,16.75397,,
3149,"Instituto de Estudios Superiores Isima, Plantel Tuxtla Gutiérrez",7,Chiapas,101,Tuxtla Gutiérrez,1,Tuxtla Gutiérrez,1ra. Norte Oriente 241 ,Centro,29000,-93.115,16.75397,,
3200,Universidad de Ciencia y Tecnología Descartes,7,Chiapas,101,Tuxtla Gutiérrez,1,Tuxtla Gutiérrez,Av. El Ciprés 480,Col. Mactumactzá,29065,-93.115,16.75397,,
2438,Escuela de Enfermería del Estado,7,Chiapas,101,Tuxtla Gutiérrez,1,Tuxtla Gutiérrez,Carr. Pananericana Km. 1080,Col. Los Laureles,29050,0,0,,
3120,Escuela Normal Superior de Chiapas,7,Chiapas,101,Tuxtla Gutiérrez,1,Tuxtla Gutiérrez,Av. 20 de Noviembre 2082,Col. Albania Alta,29010,-93.115,16.75397,,
393,"Instituto Tecnológico de la Construcción, Campus Chiapas",7,Chiapas,101,Tuxtla Gutiérrez,1,Tuxtla Gutiérrez,Blvd. de Los Castillos 227,Fracc. Montes Azules,29020,0,0,,
3037,Escuela de Enfermería de Tuxtla Gutiérrez,7,Chiapas,101,Tuxtla Gutiérrez,1,Tuxtla Gutiérrez,Blvd. Belisario Domínguez 1030,,29000,-93.115,16.75397,,
3153,Instituto de Estudios Superiores Tomás de Aquino,7,Chiapas,101,Tuxtla Gutiérrez,1,Tuxtla Gutiérrez,Av. Peru 300,Col. El Retiro,29040,-93.115,16.75397,,
1328,Universidad Pablo Guardado Chávez,7,Chiapas,101,Tuxtla Gutiérrez,1,Tuxtla Gutiérrez,Libramiento Norte Oriente 3450,Fracc. Residencial Las Palmas,29040,-93.08403,16.75676,,
1330,"Universidad Valle del Grijalva,  Campus Tuxtla",7,Chiapas,101,Tuxtla Gutiérrez,1,Tuxtla Gutiérrez,Blvd. Belisario Domínguez 1755,Fracc. Bugambilias   ,29020,-93.14842,16.75454,,
3117,Escuela Normal de Licenciatura en Educación Rural Mactumactza,7,Chiapas,101,Tuxtla Gutiérrez,1,Tuxtla Gutiérrez,Carr. a Chicuasén Km. 2  Plan de Ayala,,29110,-93.115,16.75397,,
3226,Universidad San Marcos,7,Chiapas,101,Tuxtla Gutiérrez,1,Tuxtla Gutiérrez,Av. 4a. Norte Oriente 2284 ,Col. El Brasilito ,29040,-93.115,16.75397,,
2443,Escuela Normal de Lic. en Educación Física Pedro Reynol Ozuna Henning,7,Chiapas,101,Tuxtla Gutiérrez,1,Tuxtla Gutiérrez,Blvd. Libramiento Norte Poniente s/n ,Col. Miravalle,29039,-93.12528,16.7742,,
3154,Instituto de Posgrados en Educación de Chiapas,7,Chiapas,101,Tuxtla Gutiérrez,1,Tuxtla Gutiérrez,Unidad Administrativa  edif. B,Col. Maya,29000,-93.115,16.75397,,
3143,Instituto de Estudios Superiores Frontera Sur,7,Chiapas,101,Tuxtla Gutiérrez,1,Tuxtla Gutiérrez,2a. Oriente Norte 169,Col. Frontera Comalapa,30140,-93.115,16.75397,,
343,"Escuela Bancaria y Comercial, Campus Chiapas",7,Chiapas,101,Tuxtla Gutiérrez,1,Tuxtla Gutiérrez,Cjon. San Francisco Sabinal 345,Col. Jardines de Tuxtla,29020,-93.14756,16.75678,,
3155,Instituto Nacional de Estudios Fiscales,7,Chiapas,101,Tuxtla Gutiérrez,1,Tuxtla Gutiérrez,5a. Poniente Norte 633,Centro,29000,-93.115,16.75397,,
557,"Instituto de Estudios Superiores Contables y Administrativos del Sureste, S.C.",7,Chiapas,101,Tuxtla Gutiérrez,1,Tuxtla Gutiérrez,4a. calle Oriente Sur 354 y 2a. Sur Oriente 379 ,Centro,29000,0,0,,
3219,"Universidad Linda Vista, Plantel Tuxtla Gutiérrez ",7,Chiapas,101,Tuxtla Gutiérrez,1,Tuxtla Gutiérrez,6a. Poniente Norte 515 esq. 4a. y 5a. Norte,,29000,-93.115,16.75397,,
3017,"Centro de Estudios de Posgrado, Campus Tuxtla Gutiérrez ",7,Chiapas,101,Tuxtla Gutiérrez,1,Tuxtla Gutiérrez,16a. Poniente norte 143,Fracc. Arboledas,29030,-93.115,16.75397,,
2042,Universidad Maya Campus Tuxtla Gutiérrez,7,Chiapas,101,Tuxtla Gutiérrez,1,Tuxtla Gutiérrez,Calle 9a. Sur esq. 20 A Poniente,Col. Penipak,29060,-93.14038,16.75056,,
69,Universidad de Ciencias y Artes de Chiapas (UNICACH),7,Chiapas,101,Tuxtla Gutiérrez,1,Tuxtla Gutiérrez,1ra. Sur Poniente 1460,Centro,29000,0,0,,
3138,Instituto de Estudios Superiores Benito Juárez García,7,Chiapas,101,Tuxtla Gutiérrez,1,Tuxtla Gutiérrez,5a Norte esq. Central 116,Centro,29000,-93.115,16.75397,,
2046,Fundación Mesoamericana de Cultura,7,Chiapas,101,Tuxtla Gutiérrez,1,Tuxtla Gutiérrez,5a Norte Poniente 2498 ,Col. Santa Mónica,29000,0,0,,
3062,Escuela Normal de Licenciatura en Educación Primaria del Estado de Tuxtla Gutiérrez,7,Chiapas,101,Tuxtla Gutiérrez,1,Tuxtla Gutiérrez,Km. 1 Carr. al Sumidero,Col. Albania Baja,29010,-93.115,16.75397,,
2508,"Tecnológico de Monterrey, Campus Chiapas",7,Chiapas,101,Tuxtla Gutiérrez,1,Tuxtla Gutiérrez,Carr. a Tapanatepec km.149+746,Col. San Crispin,29020,0,0,,
737,Instituto Tecnológico y de Estudios Superiores de Monterrey<br>Campus Chiapas,7,Chiapas,101,Tuxtla Gutiérrez,1,Tuxtla Gutiérrez,Carr. Tapanetepec Km. 149+746,Col. Juan Crispín,29020,-93.20161,16.76473,,
2442,Escuela Normal de Educadoras Bertha Von Glumer y Leyva,7,Chiapas,101,Tuxtla Gutiérrez,1,Tuxtla Gutiérrez,Cda. Ciudad Deportiva 2,Col. Maya,29160,-93.0984,16.76089,,
753,"Universidad del Valle de México, Campus Tuxtla Gutiérrez",7,Chiapas,101,Tuxtla Gutiérrez,1,Tuxtla Gutiérrez,Blvd. Los Castillos 375,Villas Montes Azules,29056,-93.14302,16.75435,,
3158,"Instituto para el Desarrollo y Actualización de Profesionales, Sede Tuxtla Gutiérrez",7,Chiapas,101,Tuxtla Gutiérrez,1,Tuxtla Gutiérrez,5a Poniente Norte 115,Centro,29000,-93.115,16.75397,,
3103,Escuela Normal de Licenciatura en Educación Primaria Ignacio Manuel Altamirano,7,Chiapas,102,Tuxtla Chico,1,Tuxtla Chico,Prol. Bravo s/n,,30780,-92.16889,14.94019,,
3057,Escuela Normal de Licenciatura en Educación Primaria de Villaflores,7,Chiapas,108,Villaflores,1,Villaflores,"Los Maestros Km 1.8, Magisterial",,30470,-93.2675,16.23549,,
3141,Instituto de Estudios Superiores del Sureste,7,Chiapas,108,Villaflores,1,Villaflores,Av. 7a. Pte y 2a. Sur,Barrio San Martín,30470,-93.2675,16.23549,,
2041,Centro de Estudios Superiores Frailesca,7,Chiapas,108,Villaflores,1,Villaflores,Calle 2 Av. Norte 39 ,Centro,30470,0,0,,
1321,Universidad Autónoma de Chiapas (UNACH) Facultad de Ciencias Agronómicas,7,Chiapas,108,Villaflores,1,Villaflores,"Carr. Ocozocuautla Villaflores km. 84.5, AP 78",,30470,0,0,,
3228,Universidad Pedagógica Nacional (UPN) Campus Creel,8,Chihuahua,9,Bocoyna,1,Bocoyna,Carr. Creel Arareco s/n,,33200,-107.58978,27.84157,,
3365,"Universidad Noroeste de Chihuahua, San Juanito ",8,Chihuahua,9,Bocoyna,1,Bocoyna,Pascual Orozco y Décima,Barrio Satélite,33211,-107.58925,27.84074,,
3232,Universidad Pedagógica Nacional (UPN) Campus Camargo,8,Chihuahua,11,Camargo,1,Santa Rosalía de Camargo,Angel Trías 1,Col. Centro,33700,-105.17579,27.70004,,
3231,Universidad Pedagógica Nacional (UPN) Campus Casas Grandes,8,Chihuahua,13,Casas Grandes,1,Casas Grandes,Paseo de la Reforma y Damián Carmona 3400,Col. Villa Hermosa,31770,-107.885,30.4028,,
1407,Universidad Noroeste de Chihuahua,8,Chihuahua,17,Cuauhtémoc,1,Cuauhtémoc,Km 0+220 Carr. a  Álvaro Obregón,Centro,31500,-466.90262,28.40465,,
1358,"Universidad Autónoma de Ciudad Juárez, Campus Cuauhtémoc",8,Chihuahua,17,Cuauhtémoc,1,Cuauhtémoc,Km 3.5 Carr. Anáhuac s/n,Ejido Cuauhtémoc,31600,-106.79429,28.45061,,
3234,Universidad Pedagógica Nacional (UPN) Campus Cuauhtémoc,8,Chihuahua,17,Cuauhtémoc,1,Cuauhtémoc,Av. Francisco J. Mújica y Héctor Valdez 796,Fracc. Nuevo Milenio,31544,-106.82302,28.44185,,
1409,Universidad Regional del Norte Campus Cuauhtémoc,8,Chihuahua,17,Cuauhtémoc,1,Cuauhtémoc,km. 2 Carr. Anáhuac,Parque Industrial Cuauhtémoc,,-106.82696,28.43894,,
3272,Instituto Tecnológico de Chihuahua II (ITCHII) ,8,Chihuahua,19,Chihuahua,1,Chihuahua,Av. de las Industrias 11101,Col. Complejo Industrial,31130,-106.07631,28.63679,,
1335,Claustro Universitario de Chihuahua,8,Chihuahua,19,Chihuahua,1,Chihuahua,Av. División del Norte 3104 ,Col. Altavista,31320,-106.08094,28.65659,,
772,"Instituto Superior de Arquitectura y Diseño de Chihuahua, S.C.",8,Chihuahua,19,Chihuahua,1,Chihuahua,Av. Misión del Bosque 10701,Col. Valle Escondido,31054,-106.07454,28.63535,,
3246,Escuela de Trabajo Social del Estado de Chihuahua,8,Chihuahua,19,Chihuahua,1,Chihuahua,"Cayetano Justiniani s/n, Cerro Cnel. II",Col. Lealtad I,31370,-106.07631,28.63679,,
2446,"Escuela Libre de Psicología, A.C.",8,Chihuahua,19,Chihuahua,1,Chihuahua,Calle 18 A núm. 2402 ,Col. Pacífico,31010,-106.07188,28.62485,,
2056,Centro Universitario de Chihuahua,8,Chihuahua,19,Chihuahua,1,Chihuahua,Sor Juana Inés de la Cruz 2306 ,Col. Altavista,31230,-106.07933,28.65258,,
3258,"Instituto Agustín Palacios Escudero, Campus Chihuahua",8,Chihuahua,19,Chihuahua,1,Chihuahua,Independencia 5007 entre Zubirán y Justiniani,Col. Santa Rosa,31203,-106.07631,28.63679,,
2050,Centro de Especialidades en Desarrollo y Educación,8,Chihuahua,19,Chihuahua,1,Chihuahua,Ernesto Talavera 1612,Col. Linss,31020,-106.08179,28.62189,,
3369,Universidad Politécnica de Lázaro Cárdenas (UPLC) ,8,Chihuahua,19,Chihuahua,1,Chihuahua,Av. Galeanas s/n,Col. Las 600 Casas,60950,-106.07631,28.63679,,
764,Instituto de Estudios Superiores de Chihuahua,8,Chihuahua,19,Chihuahua,1,Chihuahua,Blas Cano de los Rios 703,Col. San Felipe,31240,-106.08523,28.64427,,
3250,Escuela Normal Superior Dr. Porfirio Parra,8,Chihuahua,19,Chihuahua,1,Chihuahua,Calle 24 A  esq. 1º de Mayo 1803 y 1805,Col. Santa Rita,31020,-106.07631,28.63679,,
765,"Instituto Tecnológico de la Construcción, A.C., Campus Chihuahua",8,Chihuahua,19,Chihuahua,1,Chihuahua,Av. Universidad 2739,Col. San Felipe I Etapa,31203,0,0,,
773,Instituto Tecnológico de Chihuahua,8,Chihuahua,19,Chihuahua,1,Chihuahua,Av. Tecnológico 2909,Col. 10 de Mayo,31310,-106.0825,28.65992,,
767,Facultad de Filosofía y Letras,8,Chihuahua,19,Chihuahua,1,Chihuahua,Av. Universidad s/n,Magisterial,31130,0,0,,
768,"Universidad la Salle Chihuahua, A.C.",8,Chihuahua,19,Chihuahua,1,Chihuahua,Prol. Lomas de Majalca 11201,Col. Labor de Terrazas,31020,-106.11301,28.61656,,
3242,"Enseñanza e Investigación Superior, A.C., Campus Chihuahua",8,Chihuahua,19,Chihuahua,1,Chihuahua,Calle Sexta esq. de la Llave 1803,Centro,31000,-106.07631,28.63679,,
3265,Instituto de Administración Pública del Estado de Chihuahua,8,Chihuahua,19,Chihuahua,1,Chihuahua,Victoria 310,Centro,31000,-106.07631,28.63679,,
770,"Universidad Pedagógica Nacional del Estado de Chihuahua, UPNECH",8,Chihuahua,19,Chihuahua,1,Chihuahua,Ahuehuete 717,Col. Magisterial Universidad,31200,-106.10573,28.64369,,
3251,Escuela Normal Superior Profr. José E. Medrano R. ,8,Chihuahua,19,Chihuahua,1,Chihuahua,Sudáfrica 1100 esq. Namibia,Fracc. Residencial de León,31313,-106.07631,28.63679,,
3368,Universidad Politécnica de Chihuahua,8,Chihuahua,19,Chihuahua,1,Chihuahua,Av. Teófilo Borunda 13200,Col. Labor de Terrazas,31220,-106.07631,28.63679,,
2047,Centro Chihuahuense de Estudios de Posgrado (CCEP),8,Chihuahua,19,Chihuahua,1,Chihuahua,División del Norte 3707 ,Col. Altavista,31200,-106.07823,28.6584,,
1365,"Universidad Autónoma de Durango, Campus Chihuahua",8,Chihuahua,19,Chihuahua,1,Chihuahua,Prol. Av. de La Cantera 9501-5  ,Ejido La Haciendita,31210,-106.15413,28.64944,,
3241,Conservatorio de Música de Chihuahua,8,Chihuahua,19,Chihuahua,1,Chihuahua,Doblado 4501,Col. Popular,31350,-106.07631,28.63679,,
2053,Centro de Investigación y Docencia,8,Chihuahua,19,Chihuahua,1,Chihuahua,Lucio Cabañas 27 ,Col. Pablo Gómez,31240,0,0,,
756,Centro de Estudios Superiores del Norte,8,Chihuahua,19,Chihuahua,1,Chihuahua,Aldama 805 Altos,Centro,31000,-106.07886,28.63306,,
2054,Colegio  Palmore,8,Chihuahua,19,Chihuahua,1,Chihuahua,Gómez Farías 9 ,Centro Histórico,31000,-106.07373,28.63465,,
3267,Instituto Gastronómico L'ecole Du Chef,8,Chihuahua,19,Chihuahua,1,Chihuahua,Av. Homero 500,,31136,-106.07631,28.63679,,
1397,"Universidad del Desarrollo Profesional, Plantel Chihuahua",8,Chihuahua,19,Chihuahua,1,Chihuahua,Prol. Av. Homero 2002,Ejido Nombre de Dios,31125,-106.07349,28.64777,,
3363,"Universidad del Valle de México (UVM),  Campus Chihuahua ",8,Chihuahua,19,Chihuahua,1,Chihuahua,Av. Teófilo Borunda 14001,Ejido Labor de Terrazas,31625,-106.07631,28.63679,,
774,Universidad Regional del Norte Campus Chihuahua,8,Chihuahua,19,Chihuahua,1,Chihuahua,Allende 2628,Col. Zarco,31020,0,0,,
3273,Instituto Tecnológico de Ciudad Cuauhtémoc,8,Chihuahua,19,Chihuahua,1,Chihuahua,Av. Tecnológico 137,Col. Cuauhtémoc,31500,-106.07631,28.63679,,
2051,Centro de Estudios Superiores Elizabeth Setón,8,Chihuahua,19,Chihuahua,1,Chihuahua,Retorno Haciendas Del Valle 6721 ,Fracc. Mosaico Lomas Del Valle,31238,-106.12702,28.63105,,
3268,"Escuela Nacional de Antropología e Historia (ENAH), Unidad Chihuahua ",8,Chihuahua,19,Chihuahua,1,Chihuahua,Instituto Politécnico Nacional 301,Col. Guadalupe,31410,-106.07631,28.63679,,
1411,"Universidad TecMilenio,  Campus Chihuahua",8,Chihuahua,19,Chihuahua,1,Chihuahua,Calle Sexta y de la Llave 1803,Centro,31000,-106.07437,28.63162,,
3269,Instituto Regional de Estudios de la Familia,8,Chihuahua,19,Chihuahua,1,Chihuahua,Río de Janeiro 911,Col. Panaméricana,31200,-106.07631,28.63679,,
3364,"Universidad Nacional de Estudios Avanzados, Campus Chihuahua ",8,Chihuahua,19,Chihuahua,1,Chihuahua,Circuito Universitario 1401 esq. con Av.  Cristóbal Colón Fontanarrosa,Fracc. Bosques de San Pedro,31125,-106.07631,28.63679,,
2048,Centro de Actualización del Magisterio Chihuahua,8,Chihuahua,19,Chihuahua,1,Chihuahua,Calle 29 núm. 103 ,Centro,31000,-106.07015,28.6454,,
3270,Instituto Superior de Turismo de Chihuahua,8,Chihuahua,19,Chihuahua,1,Chihuahua,Calle 24 A esq.  1º de Mayo 1809,Col. Santa Rita,,-106.07631,28.63679,,
3257,Estudios Superiores de la Comunicación,8,Chihuahua,19,Chihuahua,1,Chihuahua,Av. División del Norte 3102 ,Col. Altavista,31320,-106.07631,28.63679,,
766,"Instituto Tecnológico y de Estudios Superiores de Monterrey, Campus Chihuahua",8,Chihuahua,19,Chihuahua,1,Chihuahua,Av. Heróico Colegio Militar 4700,Col. Nombre de Dios,31300,0,0,,
769,Universidad Tecnológica de Chihuahua,8,Chihuahua,19,Chihuahua,1,Chihuahua,Av. Montes Urales 9501,"Ejido la Haciendita, Sector 35",31216,-106.14668,28.64284,,
2575,Universidad Autónoma de Chihuahua (AUCH),8,Chihuahua,19,Chihuahua,1,Chihuahua,Av. Escorza 900,Centro,31000,-106.0723,28.63823,,
2447,Facultad de Diseño y Comunicación Gráfica,8,Chihuahua,19,Chihuahua,1,Chihuahua,Av. División del Norte 3102,Col. Alta Vista,31200,0,0,,
3227,"Instituto Benemérita y Centenaria Escuela Normal del Estado de Chihuahua, Prof. Luis Urías Belderráin",8,Chihuahua,19,Chihuahua,1,Chihuahua,Río Sacramento y Río Florido,Col. Junta de los Ríos,31300,-106.07631,28.63679,,
763,Centro de Investigación en Materiales Avanzados,8,Chihuahua,19,Chihuahua,1,Chihuahua,Av. Miguel de Cervantes 120,Complejo Industrial Chihuahua,31136,-106.13421,28.71699,,
2444,"Escuela de Arquitectura de Chihuahua, A.C.",8,Chihuahua,19,Chihuahua,1,Chihuahua,Av. Politécnico Nacional 2710,Fracc. Quintas del Sol,31250,-106.10576,28.6245,,
2052,Centro de Estudios Universitarios del Norte,8,Chihuahua,21,Delicias,1,Delicias,Calle 17½ Norte núm. 17 ,Fracc. Nogales,33000,-105.48249,28.20771,,
3284,Instituto Tecnológico de Delicias,8,Chihuahua,21,Delicias,1,Delicias,Paseo Tecnológico Km 3.5,Col. Tecnológico,33000,-105.47111,28.19333,,
3230,"Universidad Pedagógica Nacional (UPN), Campus Delicias",8,Chihuahua,21,Delicias,1,Delicias,Av. Río Florido Oriente 400,Centro,33000,-105.46452,28.19093,,
3378,"Universidad Vizcaya de las Américas, Campus Cd. Delicias ",8,Chihuahua,21,Delicias,1,Delicias,Priv. de Av. de Calz. del Charro 301,Centro,33000,-105.47111,28.19333,,
3340,"Universidad Autónoma de Chihuahua,  Campus Cd. Delicias. Facultad de Ciencias Agrícolas y Forestales",8,Chihuahua,21,Delicias,1,Delicias,"Carr. Delicias-Rosales Km 2.5,  Apdo. Postal 258 ",Centro,33000,-105.47111,28.19333,,
1775,Centro de Estudios Universitarios Vizcaya de las Américas<br>Campus Cd. Delicias,8,Chihuahua,21,Delicias,1,Delicias,Calle 2a.  Norte 413 piso 2,Col. Sector Norte,33000,-105.46892,28.19787,,
3266,Instituto de Estudios Odontológicos del Sur del Estado de Chihuahua,8,Chihuahua,21,Delicias,1,Delicias,Calle 7ª Poniente 27,,33000,-105.47111,28.19333,,
1415,Universidad Tecnológica de la Tarahumara,8,Chihuahua,27,Guachochi,1,Guachochi,Carr. Guachochi-Yoquivo km.1.5,,33180,0,0,,
3229,Universidad Pedagógica Nacional (UPN) Campus Guachochi,8,Chihuahua,27,Guachochi,1,Guachochi,Calle Pascual Orozco y Belisario Domínguez 23,Col. Los Pinos,33180,-107.06997,26.82022,,
1354,Facultad de Economía Internacional,8,Chihuahua,32,Hidalgo del Parral,1,Hidalgo del Parral,Av. Niños Héroes y Solidaridad s/n,Col. Pri,33820,-105.69915,26.9392,,
1410,Universidad Regional del Norte <br>Campus Parral,8,Chihuahua,32,Hidalgo del Parral,1,Hidalgo del Parral,Anillo Perimetral Sur Luis Donaldo Colosio km 1920 ,Cerro Blanco,33380,-105.65316,26.91947,,
3235,Centro de Estudios Superiores Nuevo Mundo,8,Chihuahua,32,Hidalgo del Parral,1,Hidalgo del Parral,Manuel Merino 16 ,Centro,33800,-105.66714,26.92209,,
3292,Instituto Tecnológico de Parral,8,Chihuahua,32,Hidalgo del Parral,1,Hidalgo del Parral,Av. Tecnológico 57,Centro,33850,-105.66714,26.92209,,
3247,Escuela Normal Experimental Miguel Hidalgo,8,Chihuahua,32,Hidalgo del Parral,1,Hidalgo del Parral,Libramiento Perimetral Luis Donaldo Colosio  Km 5 + 767 ,Col. Miguel Hidalgo,33879,-105.66714,26.92209,,
1343,Universidad Pedagógica Nacional (UPN) U-083 Campus Parral,8,Chihuahua,32,Hidalgo del Parral,1,Hidalgo del Parral,Salvador Allende esq. Esperanza s/n,Col. Palmilla,33810,-105.70778,26.94,,
3274,Instituto Tecnológico de Ciudad Jiménez,8,Chihuahua,36,Jiménez,1,José Mariano Jiménez,Av. Instituto Tecnológico s/n,Ejido Las Luisas,33980,-104.92298,27.13055,,
1364,"Universidad Autónoma de Durango, Campus Ciudad Juárez",8,Chihuahua,37,Juárez,1,Juárez,Prol. Av. Tomás Fernández 11201,Ejido Salvarcar  ,32580,-106.36139,31.69506,,
700,"Instituto Tecnológico de la Construcción, A.C., Campus Juárez",8,Chihuahua,37,Juárez,1,Juárez,Blvd. Teófilo Orunda 8471,Fracc. Acequias,32618,-106.41636,31.6883,,
681,"Instituto Tecnológico y de Estudios Superiores de Monterrey, Campus Cd. Juárez",8,Chihuahua,37,Juárez,1,Juárez,Av. Tomás Fernández Campos 8945,Parque Industrial Antonio J. Bermúdez,32470,-106.39495,31.71597,,
2327,"Centro Cultural Universitario, Ciudad Juárez",8,Chihuahua,37,Juárez,1,Juárez,Av. Pedro Rosales de León 6570,Frac.Villahermosa,32510,-106.43069,31.72084,,
1408,"Universidad Regional del Norte, Campus Juárez",8,Chihuahua,37,Juárez,1,Juárez,Camino Viejo a San José 10051 ,Col. Partido Senecú,32459,-106.43634,31.71146,,
2448,"Escuela Superior de Psicología, A.C.",8,Chihuahua,37,Juárez,1,Juárez,Damián Carmona  676 Sur ,Col. El Barreal,32040,-106.47393,31.74376,,
656,Universidad Autónoma de Ciudad Juárez ,8,Chihuahua,37,Juárez,1,Juárez,Av. Plutarco Elías Calles 1210,Col. Fovissste Chamizal,32310,-106.43364,31.74269,,
2049,Centro de Actualización del Magisterio Ciudad Juárez,8,Chihuahua,37,Juárez,1,Juárez,Benemérito de las Américas 5539 ,Col. Casas Grandes,32600,-106.44182,31.70613,,
1348,"Facultad de Ciencias Políticas y Sociales, Campus Cd. Juárez",8,Chihuahua,37,Juárez,1,Juárez,Henry Dunant 4612,Circuito Pronaf,31160,-106.44428,31.74132,,
3334,"Universidad Mexicana del Norte, S.C.",8,Chihuahua,37,Juárez,1,Juárez,Guatemala 725,El Barreal,32040,-106.47375,31.73213,,
757,"Centro de Estudios Superiores del Norte, S.C., Campus Juárez",8,Chihuahua,37,Juárez,1,Juárez,Av. Insurgentes 2543,Col. Margaritas,32330,-106.46183,31.7327,,
3275,Instituto Tecnológico de Ciudad Juárez (ITCJ) ,8,Chihuahua,37,Juárez,1,Juárez,Av. Tecnológico 1340,Frac. El Crucero,32500,-106.48502,31.74647,,
3375,Universidad Tecnológica del Paso del Norte,8,Chihuahua,37,Juárez,1,Juárez,Pez Lucio 10526,Col. Puerto de Anapra,32107,-106.48502,31.74647,,
1342,"Universidad Pedagógica Nacional, Campus Cd. Juárez",8,Chihuahua,37,Juárez,1,Juárez,Camino Viejo a San José 8370 ,Col. Partido Romero,32030,-106.40826,31.6981,,
1413,"Universidad TecMilenio, Campus Ciudad Juárez",8,Chihuahua,37,Juárez,1,Juárez,Av. Francisco Villarreal 11163 ,Col. Partido Senecú,32551,-106.38619,31.67507,,
1380,"Universidad del Desarrollo Profesional, Plantel Cd. Juárez",8,Chihuahua,37,Juárez,1,Juárez,Av. de la Raza 5820 esq. Av. del Charro y Minerva,Fracc. Partido de la Fuente,32370,-106.4335,31.727,,
2055,Colegio Latinoamericano Teresiano Cd. Juárez,8,Chihuahua,37,Juárez,1,Juárez,Plutarco Elías Calles 651 esq. Av. de la Raza,Mascarenas,32200,-106.44238,31.73005,,
103,Universidad Tecnológica de Ciudad Juárez,8,Chihuahua,37,Juárez,1,Juárez,Av. Universidad Tecnológica 3051,Col. Lote Bravo II,32695,-106.40774,31.59901,,
2058,Centro Universitario de Ciudad Juárez,8,Chihuahua,37,Juárez,1,Juárez,Avena 8611,Col. El Granjero,32690,-106.40414,31.66169,,
1251,"Universidad Interamericana del Norte, Campus Ciudad Juárez",8,Chihuahua,37,Juárez,1,Juárez,Av. Tomás Fernández 8310,Col. Del Partido Senecu,32330,-106.39632,31.72461,,
3233,Universidad Pedagógica Nacional (UPN) Campus Madera,8,Chihuahua,40,Madera,1,Madera,Av. Guerrero y Calle Tercera 2228,Col. Centro,31943,-108.1418,29.19091,,
1359,"Universidad Autónoma de Ciudad Juárez, Campus Casas Grandes",8,Chihuahua,50,Nuevo Casas Grandes,0,,Av. Universidad 3003 ,Ejido Hidalgo,31803,-107.88772,30.48934,,
3293,Instituto Tecnológico Superior de Nuevo Casas Grandes,8,Chihuahua,50,Nuevo Casas Grandes,1,Nuevo Casas Grandes,Av. Tecnológico 7100,,31700,-107.9121,30.41399,,
3248,Escuela Normal Rural Ricardo Flores Magón,8,Chihuahua,62,Saucillo,1,Saucillo,"Km 2.5 Carr. Saucillo-Las Varas, Piedras de Lumbre",Centro,33620,-105.28803,28.03267,,
257,Instituto Panamericano de Alta Dirección de Empresa (IPADE),9,Ciudad de México,2,Azcapotzalco,1,Azcapotzalco,Floresta 20,Col. Clavería,2080,-99.18683,19.46419,,
3427,"Enseñanza e Investigación Superior, A.C. (EISAC) , Campus Ferrería",9,Ciudad de México,2,Azcapotzalco,1,Azcapotzalco,Av. Granjas 800 esq. Eje 5 Nte. Montevideo,Col. Santa Barbara,2230,-99.18417,19.4841,,
3704,"Universidad Latinoamericana (ULA), Campus El Rosario",9,Ciudad de México,2,Azcapotzalco,1,Azcapotzalco,"Av. El Rosario 1025, local Y-01",Col. El Rosario,2100,-99.18417,19.4841,,
3590,"Escuela Superior de Ingeniería Mecánica y Eléctrica ESIME, Unidad Azcapotzalco",9,Ciudad de México,2,Azcapotzalco,1,Azcapotzalco,Av. de las Granjas 682 esq. Av. Azcapotzalco La Villa,Col. Santa Catarina,2550,-99.18417,19.4841,,
298,Instituto de Formación Profesional de la PGJDF,9,Ciudad de México,2,Azcapotzalco,1,Azcapotzalco,Cda. 4a. y 5a. de  Av. Jardín,Col. Ampliación Cosmopolita,2920,-99.15969,19.46995,,
315,"Universidad Tecnológica de México (UNITEC), Campus Cuitláhuac",9,Ciudad de México,2,Azcapotzalco,1,Azcapotzalco,Norte 67 núm. 2346,San Salvador Xochimanca,2870,-99.18745,19.5043,,
730,Universidad Autónoma Metropolitana (UAM) Unidad Azcapotzalco,9,Ciudad de México,2,Azcapotzalco,1,Azcapotzalco,Av. San Pablo 180,Col. Reynosa Tamaulipas,2200,-99.18702,19.50337,,
3572,"Centro de Investigación Tecnológica CIITEC, Unidad Azcapotzalco",9,Ciudad de México,2,Azcapotzalco,1,Azcapotzalco,Cda. de Cecati s/n,Col. Santa Catarina,2250,-99.18417,19.4841,,
3489,Escuela Normal Superior de México,9,Ciudad de México,2,Azcapotzalco,1,Azcapotzalco,Manuel Salazar 201,Col. Hacienda del Rosario,2420,-99.18417,19.4841,,
1566,Tecnológico Universitario de México,9,Ciudad de México,2,Azcapotzalco,1,Azcapotzalco,Av. Azcapotzalco 308,Col. Ángel Zimbrón,2099,-99.18754,19.47024,,
1568,Universidad Pedagógica Nacional (UPN) U-095,9,Ciudad de México,2,Azcapotzalco,1,Azcapotzalco,Calz. Azcapotzalco La Villa 1011,Col. San Andrés de las Salinas,2320,-99.15407,19.49084,,
3591,"Escuela Superior de Ingeniería Mecánica y Eléctrica ESIME, Unidad Culhuacán",9,Ciudad de México,3,Coyoacán,1,Coyoacán,Av. Santa Ana 1000,Col. San Francisco Culhuacán,4260,-99.16194,19.35021,,
54,Universidad Autónoma Metropolitana<br>Unidad Xochimilco,9,Ciudad de México,3,Coyoacán,1,Coyoacán,Calz. del Hueso 1100,Col. Villa Quietud,4960,-99.10299,19.30039,,
423,"Universidad Latina, Campus Sur",9,Ciudad de México,3,Coyoacán,1,Coyoacán,Pedro Enríquez Ureña 173,Col. Los Reyes,4330,-99.15522,19.33499,,
3668,"Universidad del Valle de México (UVM), Campus Coyoacán",9,Ciudad de México,3,Coyoacán,1,Coyoacán,Calz. de Tlalpan 3016 y 3058,Col. Ex Hacienda Coapa,4910,-99.16194,19.35021,,
3703,"Universidad Latinoamericana (ULA), Campus Coapa",9,Ciudad de México,3,Coyoacán,1,Coyoacán,"Canal de Miramontes 2053, nivel 3, local 1",Col. Los Girasoles,4920,-99.16194,19.35021,,
3560,"Instituto Nacional de Bellas Artes y Literatura (INBAL), Escuela Nacional de Pintura, Escultura y Grabado La Esmeralda",9,Ciudad de México,3,Coyoacán,1,Coyoacán,Av. Río Churubusco 79 esq. Calz. de Tlalpan,Col. Country Club,4220,-99.16194,19.35021,,
3562,"Instituto Nacional de Bellas Artes y Literatura (INBAL), Escuela Superior de Música",9,Ciudad de México,3,Coyoacán,1,Coyoacán,Fernández Leal 31,Barrio de la Concepción,4020,-99.16194,19.35021,,
3558,"Instituto Nacional de Bellas Artes y Literatura (INBAL), Escuela Nacional de Danza Clásica y Contemporánea",9,Ciudad de México,3,Coyoacán,1,Coyoacán,Av. Río Churubusco 79 esq. Calz. de Tlalpan,Col. Country Club,4220,-99.16194,19.35021,,
3480,Escuela Normal de México,9,Ciudad de México,3,Coyoacán,1,Coyoacán,Viena 241,,4100,-99.16194,19.35021,,
399,"Escuela Superior Villanueva Montaño, S.C.",9,Ciudad de México,3,Coyoacán,1,Coyoacán,Calz. de Tlalpan 2441 ,Col. Xotepingo,4610,-99.14068,19.33101,,
3541,"Instituto Latinoamericano de la Comunicación Educativa (ILCE), Sede Miramontes",9,Ciudad de México,3,Coyoacán,1,Coyoacán,Av. Canal de Miramontes 2549,Col. Prados de Coyoacán,4810,-99.16194,19.35021,,
553,"Instituto de Comunicación y Filosofía, A.C.",9,Ciudad de México,3,Coyoacán,1,Coyoacán,Av. Taxqueña 1792,Col. Paseos de Taxqueña,4250,-99.12532,19.33866,,
3555,"Instituto Nacional de Bellas Artes y Literatura (INBAL), Escuela Nacional de Arte Teatral",9,Ciudad de México,3,Coyoacán,1,Coyoacán,Río Churubusco 79 esq. Calz. de Tlalpan,Col. Contry Club,4220,-99.16194,19.35021,,
2075,Centro de Estudios Superiores Navales,9,Ciudad de México,3,Coyoacán,1,Coyoacán,Calz. de la Virgen 1800 ,Ex-Ejido de San Pablo Tepetlapa,4840,-99.11705,19.31969,,
612,Universidad Nacional Autónoma de México (UNAM),9,Ciudad de México,3,Coyoacán,1,Coyoacán,"Av. Universidad 3000, Torre de Rectoría, piso 6",Col. Ciudad Universitaria,4510,-99.18697,19.33188,,
3565,Instituto Nacional de Pediatría,9,Ciudad de México,3,Coyoacán,1,Coyoacán,Insurgentes Sur 3700 C,Col. Insurgentes Cuicuilco,4530,-99.16194,19.35021,,
3689,"Universidad Insurgentes, Plantel Sur II",9,Ciudad de México,3,Coyoacán,1,Coyoacán,Calz. de Tlalpan 1148 ,Col. del Carmen,4100,-99.16194,19.35021,,
410,Instituto Nacional de Estudios Superiores en Derecho Penal,9,Ciudad de México,3,Coyoacán,1,Coyoacán,Av. California 103 ,Col. Parque San Andrés,4040,-99.14858,19.34592,,
3697,Universidad Internacional,9,Ciudad de México,3,Coyoacán,1,Coyoacán,General Anaya 313,Col. Del Carmen,4100,-99.16194,19.35021,,
3473,"Escuela Nacional de Conservación, Restauración y Museografía Manuel del Castillo Negrete (ENCRyM)",9,Ciudad de México,3,Coyoacán,1,Coyoacán,General Anaya 187,Col. San Diego Churubusco,4120,-99.16194,19.35021,,
1593,"Universidad Interamericana para el Desarrollo, Campus Taxqueña",9,Ciudad de México,3,Coyoacán,1,Coyoacán,Cerro de Jesús 67,Col. Campestre Churubusco,4200,-99.13966,19.34515,,
481,Universidad Panamericana (UP)<br>Escuela Superior de Administración de Instituciones,9,Ciudad de México,3,Coyoacán,1,Coyoacán,Canteras de Oxtopulco 16,Col. Oxtopulco Universidad,4310,0,0,,
3720,Universidad Tecnológica Latinoamericana en Línea (UTEL),9,Ciudad de México,3,Coyoacán,1,Coyoacán,"Calz. de Tlalpan 2148, oficinas 8 y 9 2do. piso",Col. Campestre Churubusco,4200,-99.16194,19.35021,,
1588,"Universidad ICEL, Campus Tlalpan-Coyoacán",9,Ciudad de México,3,Coyoacán,1,Coyoacán,Calz. de Tlalpan 2754,Col. Prados Coyoacán,4810,-99.13676,19.32085,,
403,"Grupo Educativo Anglo Americano, Coyoacán",9,Ciudad de México,3,Coyoacán,1,Coyoacán,Vito Alessio Robles 233,Col. Florida,1030,-99.15047,19.35223,,
3498,"Grupo Educativo Anglo Americano, Miguel Ángel de Quevedo",9,Ciudad de México,3,Coyoacán,1,Coyoacán,Av Miguel Ángel de Quevedo 773,Barrio del Niño Jesús,4620,-99.16194,19.35021,,
400,Instituto Latinoamericana de Estudios de la Familia,9,Ciudad de México,3,Coyoacán,1,Coyoacán,Av. México 191 ,Col. Del Carmen,4100,-99.16831,19.35592,,
3479,"Escuela Normal Bertha Von Glumer, Cuajimalpa ",9,Ciudad de México,4,Cuajimalpa de Morelos,1,Cuajimalpa de Morelos,José María Castorena 412,Col. Cuajimalpa,5000,-99.29972,19.35735,,
514,Universidad Westhill,9,Ciudad de México,4,Cuajimalpa de Morelos,1,Cuajimalpa de Morelos,Domingo García Ramos 56,Col. Prados de la Montaña 1 Santa Fe,5610,0,0,,
534,Universidad Hebraica México,9,Ciudad de México,4,Cuajimalpa de Morelos,1,Cuajimalpa de Morelos,"Prol. Av. de los Bosques 292 A,  piso 5",Col. Lomas del Chamizal,5129,-99.25674,19.39905,,
3128,Centro de Estudios Superiores de Diseño de Monterrey (CEDIM) CDMX,9,Ciudad de México,4,Cuajimalpa de Morelos,1,Cuajimalpa de Morelos,"Antonio Dovali Jaime 70, Torre C, piso 13. Corporativo Samara",Santa Fe,1210,-99.27405,19.35804,,
229,"Instituto Nacional de Administración Pública, A.C.",9,Ciudad de México,4,Cuajimalpa de Morelos,1,Cuajimalpa de Morelos,Carr. Libre México-Toluca 2151 esq. Paseo de las Lilas,Col. Bosques,5110,-99.24902,19.38517,,
1584,"Universidad Autónoma Metropolitana, Unidad Cuajimalpa ",9,Ciudad de México,4,Cuajimalpa de Morelos,1,Cuajimalpa de Morelos,Av. Vasco de Quiroga 4871,Col. Santa Fe Cuajimalpa,5348,-99.29972,19.35735,,
588,"Colegio Francés Hidalgo de México, S.C.",9,Ciudad de México,5,Gustavo A. Madero,1,Gustavo A. Madero,Huitzilihuitl 30,Sta. Isabel Tola,7010,-99.11408,19.49912,,
1586,Universidad ICEL Plantel Azteca,9,Ciudad de México,5,Gustavo A. Madero,1,Gustavo A. Madero,Av. Acueducto de Guadalupe 25 ,Santa Isabel Tola,7010,-99.11715,19.50123,,
216,Centro Universitario Patria,9,Ciudad de México,5,Gustavo A. Madero,1,Gustavo A. Madero,Carlota 68,Col. Guadalupe Tepeyac,7840,-99.12251,19.46675,,
256,Instituto Gauss Jordan,9,Ciudad de México,5,Gustavo A. Madero,1,Gustavo A. Madero,Dvorak 59,Col. Vallejo,7870,-99.12674,19.46798,,
3571,"Centro de Investigación en Computación CIC, Zacatenco",9,Ciudad de México,5,Gustavo A. Madero,1,Gustavo A. Madero,Av. Juan de Dios Bátiz esq. Miguel Othón de Mendizábal,Col. Nueva Industrial Vallejo,7738,-99.11333,19.48295,,
224,Colegio Amauta,9,Ciudad de México,5,Gustavo A. Madero,1,Gustavo A. Madero,Calz. de Guadalupe 183 esq. Río Consulado,Col. 7 de Noviembre,7840,0,0,,
3574,"Centro de Investigación y de Desarrollo Tecnológico en Cómputo CIDETEC, Iztacalco",9,Ciudad de México,5,Gustavo A. Madero,1,Gustavo A. Madero,Av. Juan de Dios Bátiz s/n esq. Miguel Othón de Mendizábal,Col.  Nueva Industrial Vallejo,7700,-99.11333,19.48295,,
240,Universidad Insurgentes Plantel Norte,9,Ciudad de México,5,Gustavo A. Madero,1,Gustavo A. Madero,Acueducto 13,Col. San Pedro Zacatenco,7360,-99.11887,19.50141,,
250,"Universidad ICEL, Campus La Villa",9,Ciudad de México,5,Gustavo A. Madero,1,Gustavo A. Madero,Av. Cantera 16,Col. Estanzuela,7060,-99.1153,19.48854,,
3585,Escuela Nacional de Medicina y Homeopatía ENMH,9,Ciudad de México,5,Gustavo A. Madero,1,Gustavo A. Madero,Av. Guillermo Massieu Helguera 239,Col. La Escalera,7320,-99.11333,19.48295,,
187,Instituto Mexicano del Petróleo,9,Ciudad de México,5,Gustavo A. Madero,1,Gustavo A. Madero,Av. Eje Central Lazaro Cárdenas 152,Col. San Bartolo Atepehuacan,7730,-99.14591,19.49037,,
559,Escuela Superior de Comercio y Administración (ESCA),9,Ciudad de México,5,Gustavo A. Madero,1,Gustavo A. Madero,Prol. Manuel Carpio 471,Col. Plutarco Elías Calles,11340,-99.16738,19.45263,,
10,"Universidad Justo Sierra, plantel Acueducto",9,Ciudad de México,5,Gustavo A. Madero,1,Gustavo A. Madero,Av. Acueducto 914,Col. La Laguna Ticomán,7340,-99.12503,19.51459,,
2081,Centro de Investigación y de Estudios Avanzados (CINVESTAV),9,Ciudad de México,5,Gustavo A. Madero,1,Gustavo A. Madero,Av. Instituto Politécnico Nacional 2508 ,Col. San Pedro Zacatenco,7360,-99.1296,19.50658,,
165,"Universidad Justo Sierra, Plantel Cien Metros",9,Ciudad de México,5,Gustavo A. Madero,1,Gustavo A. Madero,Eje Central Lázaro Cárdenas 1150,Col. Nueva Industria Vallejo,7700,-99.15407,19.51148,,
3587,"Escuela Superior de Computo ESCOM, Zacatenco",9,Ciudad de México,5,Gustavo A. Madero,1,Gustavo A. Madero,Av. Juan de Dios Bátiz s/n esq. Av. Miguel Othón de Mendizabal,Col. Lindavista,7738,-99.11333,19.48295,,
3624,Universidad Autónoma de Durango,9,Ciudad de México,5,Gustavo A. Madero,1,Gustavo A. Madero,Aquiles Serdán 46,Col. Aragón La Villa,7000,-99.11333,19.48295,,
3589,"Escuela Superior de Física y Matemáticas ESFM, Zacatenco",9,Ciudad de México,5,Gustavo A. Madero,1,Gustavo A. Madero,"Av. Instituto Politécnico Nacional s/n,  edif. 9 Unidad Profesional Adolfo López Mateos",Col. San Pedro Zacatenco,7738,-99.11333,19.48295,,
3595,"Escuela Superior de Ingeniería Textil ESIT, Zacatenco",9,Ciudad de México,5,Gustavo A. Madero,1,Gustavo A. Madero,Av. Instituto Politécnico Nacional 2047,Col. Lindavista,7300,-99.11333,19.48295,,
2414,Escuela de Enfermeras de Guadalupe,9,Ciudad de México,5,Gustavo A. Madero,1,Gustavo A. Madero,Plaza San Lorenzo 13 ,Col. Tepeyac Insurgentes,7020,-99.11877,19.48637,,
3594,"Escuela Superior de Ingeniería Química e Industrias Extractivas, Zacatenco",9,Ciudad de México,5,Gustavo A. Madero,1,Gustavo A. Madero,Av. Luis Enrique Erro s/n,Col. Nueva Industrial Vallejo,7738,-99.11333,19.48295,,
255,Instituto de Prevención del Delito e Investigación Penitenciaria,9,Ciudad de México,5,Gustavo A. Madero,1,Gustavo A. Madero,Calz. de Los Misterios 534,Col. Industrial,7800,0,0,,
3583,"Centro Interdisciplinario de Investigaciones y Estudios sobre Medio Ambiente y Desarrollo CIIEMAD, Zacatenco",9,Ciudad de México,5,Gustavo A. Madero,1,Gustavo A. Madero,30 de Junio de 1520 s/n,Barrio La Laguna Ticomán,7340,-99.11333,19.48295,,
3481,Escuela Normal Francés Pasteur,9,Ciudad de México,5,Gustavo A. Madero,1,Gustavo A. Madero,Prol. Misterios 59,Col. Villa de Guadalupe,7050,-99.11333,19.48295,,
163,Instituto Politécnico Nacional ,9,Ciudad de México,5,Gustavo A. Madero,1,Gustavo A. Madero,"Av. Luis Enrique Erro s/n, Unidad Profesional Adolfo López Mateos",Col. Zacatenco,7738,-99.14024,19.50102,,
